     2.10           OBSERVATION DATA    G (GPS)             RINEX VERSION / TYPE
Convert             CompanyName         08-Jun-2004 09:22   PGM / RUN BY / DATE 
Signal Strength values S1,S2 are in dBHz                    COMMENT             
MarkerName                                                  MARKER NAME         
MarkerNumber                                                MARKER NUMBER       
Observer            Agency                                  OBSERVER / AGENCY   
Rec Number          NovAtel GPSCard     Rec Version         REC # / TYPE / VERS 
Antenna Number      Antenna Type                            ANT # / TYPE        
-2956892.5696 5075848.9991  2476388.3262                    APPROX POSITION XYZ 
        0.0000        0.0000        0.0000                  ANTENNA: DELTA H/E/N
     1     1                                                WAVELENGTH FACT L1/2
     1     1     7   G03   G06   G14   G16   G20   G22   G25WAVELENGTH FACT L1/2
     1     1     1   G30                                    WAVELENGTH FACT L1/2
                                                            COMMENT             
                                                            COMMENT             
                                                            COMMENT             
     8    C1    L1    D1    S1    P2    L2    D2    S2      # / TYPES OF OBSERV 
     1.000                                                  INTERVAL            
  2004    06    07    12    06    27.0000000    GPS         TIME OF FIRST OBS   
  2004    06    07    12    29    56.0000000    GPS         TIME OF LAST OBS    
Leap Seconds Unknown                                        COMMENT             
                                                            END OF HEADER       
 04 06 07 12 06 27.0000000  0  6G16G25G 6G30G14G22                              
  21920615.85647 114450934.09547      2276.12547        44.800    21920618.06641
  89182696.44241      1773.43841        27.700  
  21755267.64548 113582029.92448       396.31348        47.200    21755269.10341
  88505623.47341       308.62541        24.400  
  22775234.11846 119684677.38346      -244.81346        43.300    22775236.27341
  93260809.52141      -190.93841        20.500  
  22971082.05646 119971156.80746     -3228.87546        42.000    22971083.94741
  94062760.13241     -2516.18841        16.200  
  20670720.74748 107882682.70348      -629.37548        47.700    20670722.00041
  84064575.13441      -490.56341        31.100  
  23560690.52946 123069599.70646     -3361.56346        41.200    23560692.35641
  96477079.21841     -2619.56341        11.300  
 04 06 07 12 06 28.0000000  0  6G16G25G 6G30G14G22                              
  21920182.81747 114448658.55347      2275.43847        44.800    21920185.38941
  89180923.30141      1772.87541        27.700  
  21755192.26948 113581633.81048       396.12548        47.200    21755193.95641
  88505314.82041       308.50041        29.100  
  22775280.78947 119684922.60747      -245.50047        43.400    22775285.19241
  93261000.65141      -191.43841        20.800  
  22971696.54746 119974385.94346     -3229.12546        42.200    22971698.38141
  94065276.33641     -2516.37541        13.600  
  20670840.60248 107883312.51048      -630.00048        47.700    20670841.67341
  84065065.89341      -491.06341        28.100  
  23561330.23646 123072961.37246     -3361.75046        41.200    23561332.02941
  96479698.66941     -2619.68841        19.000  
 04 06 07 12 06 29.0000000  0  6G16G25G 6G30G14G22                              
  21919749.87747 114446383.50647      2274.56347        44.800    21919752.44141
  89179150.55541      1772.25041        24.800  
  21755116.90448 113581237.76248       395.87548        47.300    21755118.56841
  88505006.20841       308.31341        28.800  
  22775327.56446 119685168.41546      -246.06346        43.300    22775331.94041
  93261192.17341      -191.87541        11.800  
  22972311.07046 119977615.24546     -3229.50046        41.900    22972312.88141
  94067792.69941     -2516.68841        30.000  
  20670960.55849 107883942.88649      -630.75049        47.900    20670961.61141
  84065557.11341      -491.68841        29.200  
  23561969.95146 123076323.12046     -3361.87546        41.300    23561971.77741
  96482318.22941     -2619.81341        11.000  
 04 06 07 12 06 30.0000000  0  6G16G25G 6G30G14G22                              
  21919317.02447 114444108.93147      2274.37547        44.900    21919320.21041
  89177378.16841      1772.06341        24.200  
  21755041.55348 113580841.77448       396.18848        47.200    21755043.60941
  88504697.67041       308.56341        24.700  
  22775374.45746 119685414.81546      -246.75046        43.100    22775377.53441
  93261384.16941      -192.43841        10.600  
  22972925.61646 119980844.72546     -3229.50046        41.900    22972928.24141
  94070309.20341     -2516.68841        25.800  
  20671080.62549 107884573.81849      -631.25049        47.900    20671082.35741
  84066048.74941      -492.06341        26.800  
  23562609.69945 123079684.95145     -3361.68845        41.000    23562611.46941
  96484937.75441     -2619.68841        29.200  
 04 06 07 12 06 31.0000000  0  6G16G25G 6G30G14G22                              
  21918884.24747 114441834.70347      2274.12547        45.000    21918887.41641
  89175606.05141      1771.87541        22.700  
  21754966.18648 113580445.72748       396.12548        47.300    21754968.21941
  88504389.06141       308.50041        29.200  
  22775421.43546 119685661.64346      -247.00046        43.300    22775424.46841
  93261576.44241      -192.62541        19.200  
  22973540.17946 119984074.24246     -3229.50046        42.000    22973542.78441
  94072825.72641     -2516.68841        23.900  
  20671200.76749 107885205.16349      -631.50049        47.800    20671202.47341
  84066540.69741      -492.25041        30.200  
  23563249.41945 123083046.75345     -3361.56345        40.800    23563248.25841
  96487557.38241     -2619.56341        24.600  
 04 06 07 12 06 32.0000000  0  6G16G25G 6G30G14G22                              
  21918451.56947 114439561.05247      2273.50047        45.000    21918455.23741
  89173834.37841      1771.37541        24.400  
  21754890.85448 113580049.82948       395.81348        47.300    21754892.46041
  88504080.54941       308.25041        29.300  
  22775468.52947 119685909.15247      -247.81347        43.400    22775470.85341
  93261769.31741      -193.25041        25.700  
  22974154.78746 119987304.03246     -3230.12546        42.100    22974158.04441
  94075342.48741     -2517.12541        12.000  
  20671321.03149 107885837.15849      -632.31349        47.900    20671322.28241
  84067033.15941      -492.87541        28.500  
  23563889.18545 123086408.72245     -3361.68845        40.900    23563887.98541
  96490177.04041     -2619.68841        12.300  
 04 06 07 12 06 33.0000000  0  6G16G25G 6G30G14G22                              
  21918018.97047 114437287.81647      2273.18847        45.100    21918022.63241
  89172063.01441      1771.12541        19.500  
  21754815.52148 113579653.92948       396.06348        47.200    21754817.10741
  88503772.06241       308.43841        26.400  
  22775515.73346 119686157.16646      -248.31346        43.300    22775518.02941
  93261962.58141      -193.62541        22.400  
  22974769.44746 119990533.92246     -3229.87546        41.900    22974772.64941
  94077859.26941     -2516.93841        26.500  
  20671441.39149 107886469.64749      -632.68849        47.800    20671442.61641
  84067526.01641      -493.18841        27.300  
  23564528.95945 123089770.73345     -3361.93845        41.100    23564527.11341
  96492796.76941     -2619.87541        20.200  
 04 06 07 12 06 34.0000000  0  6G16G25G 6G30G14G22                              
  21917586.44247 114435014.89147      2272.93847        45.100    21917589.16341
  89170291.90041      1770.93841        21.300  
  21754740.16648 113579257.92848       396.18848        47.400    21754742.25341
  88503463.49741       308.56341        24.500  
  22775563.00047 119686405.58147      -248.43847        43.600    22775564.32641
  93262156.18441      -193.75041        24.000  
  22975384.08046 119993763.81246     -3229.56346        42.100    22975386.19441
  94080376.06541     -2516.68841        10.200  
  20671561.82649 107887102.50349      -632.87549        47.800    20671563.06341
  84068019.15141      -493.31341        30.800  
  23565168.70145 123093132.65045     -3361.68845        41.000    23565166.85741
  96495416.50341     -2619.68841        28.600  
 04 06 07 12 06 35.0000000  0  6G16G25G 6G30G14G22                              
  21917153.92847 114432742.15447      2272.56347        45.000    21917156.64341
  89168520.89941      1770.68841        24.300  
  21754664.75548 113578861.68348       396.31348        47.300    21754666.82741
  88503154.73141       308.62541        25.300  
  22775610.33247 119686654.27247      -248.93847        43.500    22775611.62441
  93262349.94141      -194.12541        27.000  
  22975998.69646 119996993.59346     -3230.00046        42.200    22976000.77041
  94082892.72941     -2517.06341        17.900  
  20671682.31249 107887735.61849      -633.31349        47.800    20671683.52041
  84068512.47841      -493.62541        30.700  
  23565808.40345 123096494.34145     -3361.68845        40.700    23565806.88141
  96498035.99641     -2619.68841        15.000  
 04 06 07 12 06 36.0000000  0  6G16G25G 6G30G14G22                              
  21916721.51547 114430469.94647      2271.93847        45.100    21916723.56241
  89166750.33941      1770.18841        22.500  
  21754589.37448 113578465.56348       396.12548        47.400    21754591.66841
  88502846.08241       308.50041        25.900  
  22775657.78647 119686903.61447      -249.62547        43.400    22775660.23841
  93262544.26841      -194.68841        26.500  
  22976613.33846 120000223.57446     -3230.00046        41.900    22976614.69141
  94085409.58541     -2517.06341        25.800  
  20671802.91849 107888369.33649      -633.93849        47.800    20671803.92541
  84069006.27341      -494.12541        27.000  
  23566448.14145 123099856.17545     -3361.62545        40.800    23566446.58841
  96500655.59541     -2619.62541        28.300  
 04 06 07 12 06 37.0000000  0  6G16G25G 6G30G14G22                              
  21916289.20247 114428198.13947      2271.62547        44.900    21916291.24241
  89164980.14041      1769.93841        20.000  
  21754513.99748 113578069.43248       396.25048        47.300    21754516.26641
  88502537.41641       308.62541        27.900  
  22775705.33547 119687153.45147      -250.18847        43.400    22775707.76541
  93262738.97341      -195.12541        22.300  
  22977228.00246 120003453.66746     -3230.00046        42.100    22977229.33741
  94087926.55741     -2517.06341        27.400  
  20671923.59449 107889003.52949      -634.25049        47.800    20671924.58541
  84069500.45741      -494.37541        31.000  
  23567087.86045 123103218.01745     -3361.75045        40.600    23567086.09841
  96503275.22941     -2619.68841        22.000  
 04 06 07 12 06 38.0000000  0  6G16G25G 6G30G14G22                              
  21915856.97347 114425926.79047      2271.00047        44.800    21915860.05741
  89163210.26841      1769.43841        11.500  
  21754438.62048 113577673.34448       395.81348        47.300    21754439.68241
  88502228.75541       308.25041        26.700  
  22775752.98346 119687403.82646      -250.56346        43.200    22775756.26441
  93262934.06241      -195.43841        25.900  
  22977842.70146 120006683.89646     -3230.18846        42.100    22977845.37341
  94090443.64041     -2517.18841        24.200  
  20672044.37248 107889638.24248      -635.00048        47.700    20672045.43841
  84069995.03741      -495.00041        29.400  
  23567727.60245 123106579.92445     -3362.00045        40.500    23567725.82541
  96505894.90641     -2619.87541        11.800  
 04 06 07 12 06 39.0000000  0  6G16G25G 6G30G14G22                              
  21915424.84847 114423656.06947      2270.56347        44.700    21915427.92841
  89161440.85541      1769.12541        26.600  
  21754363.27948 113577277.47148       395.68848        47.200    21754364.33341
  88501920.30741       308.18841        23.800  
  22775800.77847 119687654.96047      -251.56347        43.400    22775804.02241
  93263129.72141      -196.18841        25.800  
  22978457.45846 120009914.46246     -3230.50046        42.000    22978460.11541
  94092961.00341     -2517.43841        25.900  
  20672165.28149 107890273.66149      -635.50049        47.800    20672166.33341
  84070490.17941      -495.37541        28.100  
  23568367.42945 123109942.07545     -3362.18845        40.400    23568364.42941
  96508514.79441     -2620.06341        11.700  
 04 06 07 12 06 40.0000000  0  6G16G25G 6G30G14G22                              
  21914992.79947 114421385.73947      2270.06347        44.600    21914995.59741
  89159671.78441      1768.68841        23.700  
  21754287.93848 113576881.55948       395.81348        47.200    21754289.63641
  88501611.82141       308.25041        26.500  
  22775848.66046 119687906.52546      -251.93846        43.300    22775850.75641
  93263325.76241      -196.50041        27.400  
  22979072.24446 120013145.10946     -3230.68846        42.300    22979074.80141
  94095478.34841     -2517.56341        27.800  
  20672286.28949 107890909.55149      -636.12549        47.800    20672287.27841
  84070985.66941      -495.87541        29.300  
  23569007.21345 123113304.20345     -3361.93845        40.300    23569004.19241
  96511134.60541     -2619.87541        11.600  
 04 06 07 12 06 41.0000000  0  6G16G25G 6G30G14G22                              
  21914560.81447 114419115.74247      2270.00047        44.600    21914563.60841
  89157902.96441      1768.68841        19.900  
  21754212.59348 113576485.58848       396.00048        47.200    21754214.26341
  88501303.27141       308.43841        30.000  
  22775896.62447 119688158.57047      -252.12547        43.600    22775898.69441
  93263522.14141      -196.62541        23.000  
  22979687.05046 120016375.79946     -3230.75046        42.100    22979689.55141
  94097995.74541     -2517.62541        10.100  
  20672407.37249 107891545.85349      -636.43849        47.900    20672408.34141
  84071481.49541      -496.06341        30.200  
  23569647.00245 123116666.29445     -3361.87545        40.500    23569646.90441
  96513754.50041     -2619.81341        24.200  
 04 06 07 12 06 42.0000000  0  6G16G25G 6G30G14G22                              
  21914128.91447 114416846.13347      2269.25047        44.800    21914131.82341
  89156134.42941      1768.06341        25.200  
  21754137.22748 113576089.55648       395.93848        47.200    21754139.05441
  88500994.67241       308.37541        27.000  
  22775944.67247 119688411.06947      -252.87547        43.600    22775946.65641
  93263718.89741      -197.18841         8.600  
  22980301.84146 120019606.52746     -3230.93846        42.100    22980301.37441
  94100513.14741     -2517.75041        17.900  
  20672528.53849 107892182.60749      -637.12549        47.900    20672530.11541
  84071977.67441      -496.62541        28.900  
  23570286.78645 123120028.36545     -3362.25045        40.500    23570286.65041
  96516374.24941     -2620.12541        28.200  
 04 06 07 12 06 43.0000000  0  6G16G25G 6G30G14G22                              
  21913697.10947 114414577.08147      2268.93847        44.600    21913700.01541
  89154366.34341      1767.81341        27.800  
  21754061.88148 113575693.67048       396.00048        47.200    21754063.68941
  88500686.17641       308.43841        27.100  
  22775992.85547 119688664.21847      -253.31347        43.400    22775994.80841
  93263916.15541      -197.56341        22.600  
  22980916.68846 120022837.53746     -3230.87546        42.200    22980916.20041
  94103030.84941     -2517.75041        23.800  
  20672649.83149 107892819.99349      -637.50049        47.800    20672651.38841
  84072474.34641      -496.93841        29.900  
  23570926.58845 123123390.61745     -3362.06345        40.700    23570924.97241
  96518994.16341     -2619.93841        11.600  
 04 06 07 12 06 44.0000000  0  6G16G25G 6G30G14G22                              
  21913265.42547 114412308.65047      2268.06347        44.700    21913268.61241
  89152598.76041      1767.18841        26.000  
  21753986.58548 113575297.99848       395.68848        47.200    21753988.02041
  88500377.85841       308.18841        24.300  
  22776041.17547 119688918.10147      -254.12547        43.500    22776041.55041
  93264113.97341      -198.18841        23.900  
  22981531.60046 120026068.87346     -3231.43846        42.300    22981531.90141
  94105548.76441     -2518.18841        28.300  
  20672771.24749 107893458.06349      -638.31349        47.800    20672773.10941
  84072971.54241      -497.56341        29.000  
  23571566.42045 123126753.07545     -3362.37545        40.500    23571564.80741
  96521614.27341     -2620.18841        18.700  
 04 06 07 12 06 45.0000000  0  6G16G25G 6G30G14G22                              
  21912833.82847 114410040.66947      2267.93847        44.800    21912837.00341
  89150831.48641      1767.06341        28.000  
  21753911.29248 113574902.36048       395.75048        47.100    21753912.71441
  88500069.57841       308.18841        22.500  
  22776089.59147 119689172.52647      -254.81347        43.400    22776089.93941
  93264312.20641      -198.75041        14.300  
  22982146.53846 120029300.34846     -3231.56346        42.300    22982146.81241
  94108066.80841     -2518.25041        24.100  
  20672892.77949 107894096.69049      -638.81349        47.800    20672894.61041
  84073469.17041      -497.93841        29.600  
  23572206.28745 123130115.58545     -3362.18845        41.000    23572204.99841
  96524234.41841     -2620.06341        25.700  
 04 06 07 12 06 46.0000000  0  6G16G25G 6G30G14G22                              
  21912402.29547 114407773.00347      2267.37547        44.700    21912404.90541
  89149064.47441      1766.62541        25.300  
  21753835.98348 113574506.61648       395.56348        47.200    21753837.79041
  88499761.21441       308.06341        24.200  
  22776138.08747 119689427.35547      -255.18847        43.500    22776138.19141
  93264510.80041      -199.00041        24.100  
  22982761.47846 120032531.82646     -3231.62546        42.100    22982763.15741
  94110584.84041     -2518.31341        28.400  
  20673014.36549 107894735.68049      -639.25049        47.800    20673015.81541
  84073967.09341      -498.31341        30.300  
  23572846.11345 123133478.01545     -3362.43845        41.100    23572844.82641
  96526854.49441     -2620.25041        11.200  
 04 06 07 12 06 47.0000000  0  6G16G25G 6G30G14G22                              
  21911970.83047 114405505.74347      2267.18847        44.600    21911973.43741
  89147297.77741      1766.50041        25.500  
  21753760.67248 113574110.84548       395.75048        47.100    21753762.45741
  88499452.83841       308.18841        27.300  
  22776186.69547 119689682.69047      -255.68847        43.400    22776186.76941
  93264709.80641      -199.37541        21.300  
  22983376.44246 120035763.38646     -3231.50046        42.100    22983378.08341
  94113102.94641     -2518.18841        25.800  
  20673136.05249 107895375.15349      -639.68849        47.800    20673137.48241
  84074465.37241      -498.62541        28.000  
  23573485.96845 123136840.46745     -3362.18845        41.100    23573486.03341
  96529474.60841     -2620.06341        16.400  
 04 06 07 12 06 48.0000000  0  6G16G25G 6G30G14G22                              
  21911539.43847 114403238.83947      2266.81347        44.600    21911542.19741
  89145531.35541      1766.18841        27.700  
  21753685.34748 113573715.03148       395.81348        47.200    21753687.46241
  88499144.40941       308.25041        23.200  
  22776235.38147 119689938.47647      -256.00047        43.500    22776237.03341
  93264909.09241      -199.62541        20.200  
  22983991.42246 120038995.03246     -3231.81346        42.100    22983993.86241
  94115621.11241     -2518.43841        10.100  
  20673257.82549 107896015.06249      -640.12549        47.800    20673258.75941
  84074964.00241      -498.93841        30.000  
  23574125.79645 123140202.86345     -3362.31345        40.900    23574125.86441
  96532094.70041     -2620.12541        25.100  
 04 06 07 12 06 49.0000000  0  6G16G25G 6G30G14G22                              
  21911108.12347 114400972.35947      2266.06347        44.700    21911110.87541
  89143765.26641      1765.62541        27.400  
  21753610.01748 113573319.20048       395.68848        47.200    21753612.11641
  88498835.97841       308.18841        25.500  
  22776284.14946 119690194.77446      -256.68846        43.200    22776285.78141
  93265108.80441      -200.18841        26.800  
  22984606.39946 120042226.75346     -3231.93846        41.900    22984608.82041
  94118139.35941     -2518.56341        18.300  
  20673379.68749 107896655.45449      -640.87549        47.800    20673380.60041
  84075463.01641      -499.56341        30.600  
  23574765.64745 123143565.30845     -3362.81345        40.900    23574765.63341
  96534714.82941     -2620.56341        30.300  
 04 06 07 12 06 50.0000000  0  6G16G25G 6G30G14G22                              
  21910676.90747 114398706.36047      2265.87547        44.800    21910679.49641
  89141999.57141      1765.43841        21.000  
  21753534.70248 113572923.45148       395.87548        47.200    21753536.99841
  88498527.59941       308.31341        26.100  
  22776333.01947 119690451.65947      -257.25047        43.400    22776335.18241
  93265309.01641      -200.62541        23.100  
  22985221.40746 120045458.66946     -3231.93846        42.000    22985222.57541
  94120657.71441     -2518.56341        17.000  
  20673501.66149 107897296.40749      -641.31349        47.900    20673502.81441
  84075962.44941      -499.87541        28.600  
  23575405.51445 123146927.84245     -3362.56345        40.700    23575405.47941
  96537334.95941     -2620.31341        11.600  
 04 06 07 12 06 51.0000000  0  6G16G25G 6G30G14G22                              
  21910245.77747 114396440.74447      2265.50047        44.700    21910248.34741
  89140234.17341      1765.18841        25.200  
  21753459.39048 113572527.64748       395.93848        47.100    21753461.66241
  88498219.18941       308.37541        23.900  
  22776381.96747 119690709.00547      -257.62547        43.500    22776384.13141
  93265509.53741      -200.93841        24.600  
  22985836.41846 120048690.63846     -3232.06346        42.000    22985837.58641
  94123176.16741     -2518.62541        24.700  
  20673623.72449 107897937.80049      -641.56349        47.800    20673624.85041
  84076462.24141      -500.06341        29.300  
  23576045.36745 123150290.32945     -3362.56345        40.700    23576044.80141
  96539954.99841     -2620.31341        22.700  
 04 06 07 12 06 52.0000000  0  6G16G25G 6G30G14G22                              
  21909814.71147 114394175.56747      2265.06347        45.000    21909818.30641
  89138469.11141      1764.81341        25.800  
  21753384.07848 113572131.88848       395.75048        47.200    21753386.54441
  88497910.81241       308.18841        25.000  
  22776431.04747 119690966.90047      -258.12547        43.600    22776432.38141
  93265710.49141      -201.31341         8.700  
  22986451.45746 120051922.75446     -3232.25046        42.200    22986454.11741
  94125694.70941     -2518.81341        27.300  
  20673745.88249 107898579.72249      -642.18849        47.900    20673747.27141
  84076962.45041      -500.56341        30.300  
  23576685.22545 123153652.87745     -3362.37545        40.700    23576684.65241
  96542575.17941     -2620.18841        17.700  
 04 06 07 12 06 53.0000000  0  6G16G25G 6G30G14G22                              
  21909383.76447 114391910.99547      2264.18847        45.000    21909387.35341
  89136704.52741      1764.12541        25.600  
  21753308.79548 113571736.29048       395.62548        47.100    21753311.23841
  88497602.54641       308.12541        26.300  
  22776480.25747 119691225.48747      -259.06347        43.600    22776481.57241
  93265912.01341      -202.06341         8.600  
  22987066.57546 120055155.15846     -3232.50046        42.000    22987069.19741
  94128213.44241     -2519.00041        28.800  
  20673868.15649 107899222.30649      -642.93849        47.800    20673869.52841
  84077463.17541      -501.12541        29.100  
  23577325.12945 123157015.63345     -3362.68845        40.700    23577325.17841
  96545195.49041     -2620.43841        15.100  
 04 06 07 12 06 54.0000000  0  6G16G25G 6G30G14G22                              
  21908952.91747 114389646.93747      2263.87547        45.000    21908956.59141
  89134940.29341      1763.87541        27.200  
  21753233.53548 113571340.81648       395.43848        47.100    21753235.66841
  88497294.36441       307.93841        28.000  
  22776529.57947 119691484.69647      -259.37547        43.400    22776530.27341
  93266114.00241      -202.25041        22.400  
  22987681.72846 120058387.77246     -3232.50046        42.100    22987683.54041
  94130732.34541     -2519.00041        18.200  
  20673990.54649 107899865.48449      -643.43849        47.800    20673991.90241
  84077964.35041      -501.56341        29.500  
  23577965.04045 123160378.51245     -3362.81345        40.700    23577965.08041
  96547815.87741     -2620.56341        11.500  
 04 06 07 12 06 55.0000000  0  6G16G25G 6G30G14G22                              
  21908522.14447 114387383.24947      2263.50047        45.100    21908525.80041
  89133176.37841      1763.62541        27.100  
  21753158.25648 113570945.26948       395.75048        46.900    21753160.37341
  88496986.14541       308.18841        29.000  
  22776578.98547 119691744.35747      -259.87547        43.500    22776579.65041
  93266316.28841      -202.68841        22.600  
  22988296.90746 120061620.46346     -3233.00046        42.100    22988298.67841
  94133251.31441     -2519.37541        10.200  
  20674113.01549 107900509.09449      -643.68849        47.800    20674114.35441
  84078465.87041      -501.75041        28.800  
  23578604.97045 123163741.35045     -3362.62545        40.600    23578602.51841
  96550436.32241     -2620.37541        24.800  
 04 06 07 12 06 56.0000000  0  6G16G25G 6G30G14G22                              
  21908091.44147 114385120.01547      2262.93847        45.100    21908095.11241
  89131412.81741      1763.18841        22.800  
  21753082.98748 113570549.76948       395.50048        47.000    21753084.55741
  88496677.97041       308.00041        29.000  
  22776628.51147 119692004.57447      -260.50047        43.400    22776629.04241
  93266519.06141      -203.12541        28.100  
  22988912.08646 120064853.26146     -3232.87546        41.900    22988913.17641
  94135770.35441     -2519.31341        23.800  
  20674235.59549 107901153.25049      -644.56349        47.900    20674237.27741
  84078967.80041      -502.43841        30.400  
  23579244.88645 123167104.27645     -3363.12545        40.200    23579242.44541
  96553056.80941     -2620.75041        20.600  
 04 06 07 12 06 57.0000000  0  6G16G25G 6G30G14G22                              
  21907660.81947 114382857.14847      2262.93847        45.000    21907664.48741
  89129649.57141      1763.18841        20.400  
  21753007.71148 113570154.21948       395.75048        47.000    21753009.26841
  88496369.76541       308.18841        28.900  
  22776678.11046 119692265.24346      -260.93846        43.300    22776678.62141
  93266722.17041      -203.50041        10.600  
  22989527.25846 120068086.12846     -3232.93846        42.100    22989528.35141
  94138289.48941     -2519.31341        21.900  
  20674358.25849 107901797.83149      -644.81349        47.800    20674359.91541
  84079470.06241      -502.62541        29.800  
  23579884.80845 123170467.13945     -3362.56345        40.100    23579884.34741
  96555677.29441     -2620.31341        12.100  
 04 06 07 12 06 58.0000000  0  6G16G25G 6G30G14G22                              
  21907230.24647 114380594.53647      2262.43847        44.900    21907233.93041
  89127886.49741      1762.75041        22.100  
  21752932.42148 113569758.51948       395.50048        47.000    21752934.47841
  88496061.45341       308.00041        25.600  
  22776727.79147 119692526.27147      -261.31347        43.500    22776728.98241
  93266925.63441      -203.81341        21.500  
  22990142.43846 120071318.94546     -3233.00046        42.300    22990144.84141
  94140808.60041     -2519.37541        24.700  
  20674480.98149 107902442.74749      -645.31349        47.900    20674482.49741
  84079972.58141      -503.00041        31.200  
  23580524.69845 123173829.87845     -3362.62545        40.100    23580524.22441
  96558297.56441     -2620.37541        26.000  
 04 06 07 12 06 59.0000000  0  6G16G25G 6G30G14G22                              
  21906799.76047 114378332.37047      2262.00047        45.000    21906803.43241
  89126123.75841      1762.43841        25.800  
  21752857.11148 113569362.81348       395.81348        46.900    21752859.15641
  88495753.11241       308.25041        26.200  
  22776777.56247 119692787.83347      -261.68847        43.500    22776778.73641
  93267129.46341      -204.06341        22.100  
  22990757.65046 120074551.87646     -3232.87546        41.800    22990760.03041
  94143327.79141     -2519.31341        27.400  
  20674603.80449 107903088.17349      -645.56349        47.800    20674605.29941
  84080475.52641      -503.18841        28.300  
  23581164.59945 123177192.66945     -3363.00045        39.800    23581164.05041
  96560917.95341     -2620.68841        12.300  
 04 06 07 12 07  0.0000000  0  6G16G25G 6G30G14G22                              
  21906369.31447 114376070.44247      2261.75047        45.000    21906372.50641
  89124361.22341      1762.25041        26.700  
  21752781.77048 113568966.94348       395.93848        46.900    21752783.52641
  88495444.64941       308.37541        27.000  
  22776827.40746 119693049.71746      -262.00046        43.300    22776829.65841
  93267333.50441      -204.31341        14.300  
  22991372.84546 120077784.74346     -3232.87546        42.100    22991376.42541
  94145846.91241     -2519.31341        21.000  
  20674726.68149 107903733.91249      -646.00049        47.800    20674728.24441
  84080978.70641      -503.56341        30.500  
  23581804.48845 123180555.27045     -3362.31345        39.600    23581803.92241
  96563538.21241     -2620.12541        25.200  
 04 06 07 12 07  1.0000000  0  6G16G25G 6G30G14G22                              
  21905938.94247 114373808.81147      2261.50047        45.000    21905942.11141
  89122598.90241      1762.06341        29.000  
  21752706.41348 113568570.97148       396.06348        47.000    21752708.15341
  88495136.09841       308.43841        26.700  
  22776877.32046 119693312.02146      -262.37546        43.300    22776879.54641
  93267537.87441      -204.62541         9.200  
  22991988.05846 120081017.63146     -3232.93846        41.900    22991991.59541
  94148366.01741     -2519.31341        17.500  
  20674849.63549 107904380.03049      -646.18849        47.900    20674851.17241
  84081482.16341      -503.68841        30.300  
  23582444.34345 123183917.81045     -3362.25045        40.100    23582444.31941
  96566158.35741     -2620.12541        12.300  
 04 06 07 12 07  2.0000000  0  6G16G25G 6G30G14G22                              
  21905508.68947 114371547.82747      2260.62547        45.000    21905511.73641
  89120837.10341      1761.37541        25.300  
  21752631.09248 113568175.19148       395.68848        47.000    21752632.21941
  88494827.68741       308.18841        28.200  
  22776927.38646 119693575.04746      -263.18846        43.300    22776928.68341
  93267742.84541      -205.25041        23.700  
  22992603.31946 120084250.82146     -3233.37546        42.000    22992603.89641
  94150885.37741     -2519.68841        23.800  
  20674972.73049 107905026.85949      -647.37549        47.900    20674974.11342
  84081986.18642      -504.62542        32.400  
  23583084.26045 123187280.58245     -3363.00045        40.200    23583084.22441
  96568778.75941     -2620.68841        11.800  
 04 06 07 12 07  3.0000000  0  6G16G25G 6G30G14G22                              
  21905078.50647 114369287.28847      2260.31347        45.100    21905081.55041
  89119075.66341      1761.12541        23.000  
  21752555.77548 113567779.46148       395.75048        46.900    21752556.89641
  88494519.35041       308.18841        26.100  
  22776977.52746 119693838.63346      -263.93846        43.300    22776978.82841
  93267948.28241      -205.81341        20.700  
  22993218.61346 120087484.15046     -3233.25046        42.100    22993219.15141
  94153404.83541     -2519.56341        10.100  
  20675095.91949 107905674.21249      -647.62549        47.900    20675097.27741
  84082490.60941      -504.81341        29.100  
  23583724.17245 123190643.39745     -3362.75045        40.500                  
                                                
 04 06 07 12 07  4.0000000  0  6G16G25G 6G30G14G22                              
  21904648.42647 114367027.24047      2259.93847        44.900    21904651.28041
  89117314.60541      1760.81341        26.600  
  21752480.46648 113567383.80448       395.50048        46.900    21752482.14941
  88494211.03541       308.00041        27.700  
  22777027.80146 119694102.80046      -264.50046        43.300    22777029.75841
  93268154.11041      -206.25041         8.900  
  22993833.93046 120090717.67646     -3233.62546        42.300    22993835.69741
  94155924.48141     -2519.87541        27.300  
  20675219.21149 107906322.13349      -648.25049        47.900    20675220.32241
  84082995.47641      -505.31341        31.100  
  23584364.11645 123194006.32445     -3363.25045        40.600                  
                                                
 04 06 07 12 07  5.0000000  0  6G16G25G 6G30G14G22                              
  21904218.59347 114364768.49747      2257.50047        45.000    21904221.42741
  89115554.52741      1758.93841        22.700  
  21752405.33448 113566989.01948       393.93848        47.000    21752407.00441
  88493903.41841       306.81341        30.600  
  22777078.32246 119694368.36546      -266.62546        43.300    22777080.27141
  93268361.06341      -207.93841        19.200  
  22994449.44846 120093952.19046     -3235.50046        42.000    22994451.18341
  94158444.88641     -2521.31341        10.100  
  20675342.76049 107906971.41649      -650.43849        47.900    20675343.85441
  84083501.42041      -507.00041        30.200  
  23585004.22745 123197370.11745     -3364.75045        40.100    23585003.75141
  96576645.61751     -2622.06341        14.000  
 04 06 07 12 07  6.0000000  0  6G16G25G 6G30G14G22                              
  21903788.89347 114362510.47147      2258.87547        45.000    21903790.37241
  89113795.01541      1760.00041        22.300  
  21752330.26148 113566594.54048       395.43848        46.900    21752332.12541
  88493596.03041       307.93841        27.000  
  22777129.02246 119694634.74546      -265.93846        43.300    22777131.22141
  93268568.59341      -207.37541        22.400  
  22995065.03146 120097187.09446     -3233.62546        42.000    22995067.58641
  94160965.59941     -2519.87541        25.400  
  20675466.46249 107907621.49949      -649.43849        47.800    20675467.45941
  84084007.98341      -506.25041        29.000  
  23585644.39645 123200734.27745     -3363.31345        40.000    23585643.90341
  96579267.01241     -2620.93841        12.000  
 04 06 07 12 07  7.0000000  0  6G16G25G 6G30G14G22                              
  21903359.04447 114360251.59147      2258.75047        44.900    21903360.49341
  89112034.82041      1759.87541        27.000  
  21752254.94848 113566198.79348       396.00048        47.000    21752256.79541
  88493287.64641       308.43841        27.200  
  22777179.56447 119694900.35847      -265.87547        43.400    22777181.74041
  93268775.54241      -207.31341        27.500  
  22995680.40846 120100420.85846     -3233.62546        42.200    22995682.93141
  94163485.42041     -2519.87541        25.000  
  20675590.01349 107908270.78849      -649.31349        47.800    20675590.99541
  84084513.92341      -506.12541        30.000  
  23586284.31545 123204097.15445     -3362.62545        40.200    23586283.91041
  96581887.42441     -2620.37541        12.000  
 04 06 07 12 07  8.0000000  0  6G16G25G 6G30G14G22                              
  21902929.20647 114357992.82347      2258.62547        45.000    21902929.78041
  89110274.73741      1759.81341        23.500  
  21752179.57248 113565802.75048       395.93848        47.000    21752180.97241
  88492979.03841       308.37541        27.800  
  22777230.14347 119695166.18647      -266.12547        43.500    22777230.82541
  93268982.69041      -207.56341         8.800  
  22996295.74446 120103654.41246     -3233.68846        42.300    22996299.39541
  94166005.06941     -2519.93841        24.400  
  20675713.61149 107908920.28949      -649.75049        47.800    20675714.14941
  84085020.02841      -506.43841        29.800  
  23586924.20045 123207459.74845     -3362.37545        40.200    23586923.76441
  96584507.61541     -2620.18841        14.800  
 04 06 07 12 07  9.0000000  0  6G16G25G 6G30G14G22                              
  21902499.44847 114355734.44347      2258.25047        45.000    21902500.01141
  89108514.99041      1759.50041        26.400  
  21752104.19748 113565406.66248       396.12548        46.900    21752105.57941
  88492670.40641       308.50041        28.900  
  22777280.82847 119695432.49547      -266.56347        43.400    22777281.48041
  93269190.19141      -207.87541        25.500  
  22996911.08746 120106888.04946     -3233.75046        42.300    22996914.70041
  94168524.73041     -2520.00041        23.600  
  20675837.29149 107909570.23249      -650.06349        47.800    20675837.80641
  84085526.47341      -506.68841        29.200  
  23587564.08045 123210822.34045     -3362.37545        40.000    23587561.73941
  96587127.94241     -2620.18841        24.000  
 04 06 07 12 07 10.0000000  0  6G16G25G 6G30G14G22                              
  21902069.76647 114353476.45347      2257.62547        45.000    21902071.04141
  89106755.53641      1759.00041        28.600  
  21752028.81148 113565010.55148       395.93848        46.900    21752030.63141
  88492361.76441       308.37541        27.200  
  22777331.59647 119695699.28847      -267.12547        43.500    22777331.79641
  93269398.08041      -208.31341        27.700  
  22997526.43946 120110121.75646     -3233.81346        42.200    22997530.91441
  94171044.53441     -2520.00041        22.700  
  20675961.07149 107910220.65449      -650.75049        47.900    20675962.31441
  84086033.31041      -507.25041        30.700  
  23588203.97345 123214184.95045     -3362.56345        40.000                  
                                                
 04 06 07 12 07 11.0000000  0  6G16G25G 6G30G14G22                              
  21901640.20347 114351219.12547      2256.75047        45.100    21901641.46741
  89104996.59741      1758.31341        22.800  
  21751953.47748 113564614.68548       395.81348        46.900    21751955.28141
  88492053.30441       308.25041        26.100  
  22777382.51247 119695966.83747      -268.00047        43.500    22777382.69641
  93269606.58041      -209.00041        20.600  
  22998141.85546 120113355.82046     -3234.25046        42.300    22998146.31141
  94173564.56241     -2520.37541        13.200  
  20676084.97749 107910871.79049      -651.43849        47.900    20676086.19741
  84086540.69741      -507.75041        28.500  
  23588843.90945 123217547.79745     -3363.18845        40.200                  
                                                
 04 06 07 12 07 12.0000000  0  6G16G25G 6G30G14G22                              
  21901210.79247 114348962.55147      2256.43847        45.000    21901213.25541
  89103238.22741      1758.12541        25.100  
  21751878.20448 113564219.17448       395.43848        46.900    21751880.25341
  88491745.12241       307.93841        26.000  
  22777433.58146 119696235.22946      -268.68846        43.300    22777434.13641
  93269815.71541      -209.56341        24.600  
  22998757.36246 120116590.34846     -3234.87546        42.300    22998761.01241
  94176085.02241     -2520.87541        25.800  
  20676209.04749 107911523.77849      -652.43849        47.800    20676210.54941
  84087048.74741      -508.56341        29.900  
  23589483.91245 123220911.03245     -3363.62545        39.900    23589484.44941
  96594995.39051     -2621.18841        18.300  
 04 06 07 12 07 13.0000000  0  6G16G25G 6G30G14G22                              
  21900781.49747 114346706.63147      2255.68847        45.200    21900783.94241
  89101480.35741      1757.50041        22.800  
  21751802.96948 113563823.87348       395.18848        46.900    21751805.01041
  88491437.09541       307.75041        23.200  
  22777484.79947 119696504.37047      -269.31347        43.400    22777485.33741
  93270025.45141      -210.00041        22.900  
  22999372.93046 120119825.18746     -3234.93846        42.300    22999376.56241
  94178605.68741     -2520.87541        25.700  
  20676333.24049 107912176.45149      -652.75049        47.800    20676334.72641
  84087557.33141      -508.81341        28.100  
  23590123.93845 123224274.45645     -3363.25045        39.400    23590124.12041
  96597616.21841     -2620.87541        27.000  
 04 06 07 12 07 14.0000000  0  6G16G25G 6G30G14G22                              
  21900352.26347 114344451.03147      2255.50047        45.200    21900353.96841
  89099722.74441      1757.37541        22.000  
  21751727.73048 113563428.49448       395.31348        46.900    21751729.39741
  88491128.99741       307.87541        24.400  
  22777536.10347 119696773.95147      -270.00047        43.500    22777538.04541
  93270235.52241      -210.56341        26.200  
  22999988.50246 120123060.04246     -3234.62546        42.300    22999992.95241
  94181126.35141     -2520.62541        21.400  
  20676457.51049 107912829.54949      -653.25049        47.900    20676459.44141
  84088066.22941      -509.18841        28.800  
  23590763.95645 123227637.87245     -3363.18845        39.400    23590764.11841
  96600236.99341     -2620.81341        25.300  
 04 06 07 12 07 15.0000000  0  6G16G25G 6G30G14G22                              
  21899923.12947 114342195.89547      2255.00047        45.300    21899924.81141
  89097965.51241      1757.00041        17.900  
  21751652.49448 113563033.15448       395.25048        46.900    21751654.14941
  88490820.95041       307.81341        26.800  
  22777587.51547 119697044.08247      -270.50047        43.500    22777589.44241
  93270446.07641      -210.93841         8.700  
  23000604.10546 120126295.06846     -3234.93846        42.300    23000608.54141
  94183647.16841     -2520.87541        22.800  
  20676581.88849 107913483.18349      -653.93849        47.800    20676583.79741
  84088575.55141      -509.75041        29.700  
  23591403.97345 123231001.31745     -3363.43845        39.600    23591405.83941
  96602857.84841     -2621.00041        12.800  
 04 06 07 12 07 16.0000000  0  6G16G25G 6G30G14G22                              
  21899494.05547 114339941.19047      2254.37547        45.300    21899496.38241
  89096208.59241      1756.50041        25.100  
  21751577.25748 113562637.81048       395.25048        46.900    21751578.50041
  88490512.89841       307.81341        27.800  
  22777639.00347 119697314.71747      -271.00047        43.500    22777642.64741
  93270656.96241      -211.31341        23.200  
  23001219.73746 120129530.19646     -3235.18846        42.100    23001222.46141
  94186167.99141     -2521.06341        10.000  
  20676706.36549 107914137.30249      -654.50049        47.800    20676708.16941
  84089085.24641      -510.18841        30.500  
  23592043.99945 123234364.79045     -3363.31345        39.300    23592045.87141
  96605478.77641     -2620.93841        27.200  
 04 06 07 12 07 17.0000000  0  6G16G25G 6G30G14G22                              
  21899065.08647 114337686.93347      2254.06347        45.400    21899067.39141
  89094452.03441      1756.25041        20.100  
  21751502.01648 113562242.50248       395.31348        46.900    21751503.25441
  88490204.87341       307.87541        26.000  
  22777690.60247 119697585.90447      -271.68847        43.500    22777694.22741
  93270868.26541      -211.87541        16.600  
  23001835.39046 120132765.48246     -3235.43846        42.300    23001838.10641
  94188689.03141     -2521.31341        26.700  
  20676830.93248 107914791.95148      -654.93848        47.700    20676832.72241
  84089595.35141      -510.50041        28.400  
  23592684.06645 123237728.34645     -3363.56345        39.700    23592682.97241
  96608099.67741     -2621.12541        21.800  
 04 06 07 12 07 18.0000000  0  6G16G25G 6G30G14G22                              
  21898636.17848 114335432.96348      2253.87548        45.600    21898638.08341
  89092695.70441      1756.12541        17.600  
  21751426.76148 113561847.07048       395.43848        46.900    21751427.97841
  88489896.75441       307.93841        26.600  
  22777742.27646 119697857.46146      -271.75046        43.300    22777744.96841
  93271079.84641      -211.93841        20.600  
  23002451.03046 120136000.71146     -3235.25046        42.200    23002453.52941
  94191209.95241     -2521.12541        18.700  
  20676955.58048 107915446.95248      -655.12548        47.700    20676956.52741
  84090105.73041      -510.62541        29.500  
  23593324.08845 123241091.77345     -3363.62545        39.900    23593322.99441
  96610720.57041     -2621.18841        26.000  
 04 06 07 12 07 19.0000000  0  6G16G25G 6G30G14G22                              
  21898207.31148 114333179.25348      2253.75048        45.600    21898209.19341
  89090939.56841      1756.00041        22.700  
  21751351.47848 113561451.48148       395.81348        46.900    21751352.67341
  88489588.48341       308.25041        25.500  
  22777794.03647 119698129.40347      -272.25047        43.400    22777796.69141
  93271291.73941      -212.31341        17.400  
  23003066.67546 120139235.92146     -3235.00046        42.300    23003069.14441
  94193730.89741     -2520.93841        26.700  
  20677080.29649 107916102.30649      -655.37549        47.800    20677081.20941
  84090616.40341      -510.87541        29.900  
  23593964.09445 123244455.02545     -3362.87545        40.000    23593962.74041
  96613341.25741     -2620.56341        24.200  
 04 06 07 12 07 20.0000000  0  6G16G25G 6G30G14G22                              
  21897778.51647 114330925.86347      2253.12547        45.500    21897780.83941
  89089183.69041      1755.50041        24.800  
  21751276.16848 113561055.77348       395.75048        46.900    21751277.78841
  88489280.15441       308.18841        26.700  
  22777845.85047 119698401.71147      -272.37547        43.400    22777848.88341
  93271503.95341      -212.37541        24.700  
  23003682.31246 120142471.09946     -3235.12546        42.200    23003686.70441
  94196251.83441     -2521.06341        17.200  
  20677205.07449 107916758.04249      -656.12549        47.800    20677206.02541
  84091127.35741      -511.43841        30.300  
  23594604.09245 123247818.22645     -3363.12545        40.100    23594602.72041
  96615961.96741     -2620.75041        18.400  
 04 06 07 12 07 21.0000000  0  6G16G25G 6G30G14G22                              
  21897349.83847 114328673.07247      2252.75047        45.500    21897352.11941
  89087428.26041      1755.25041        17.000  
  21751200.89448 113560660.27248       395.50048        47.000    21751202.50541
  88488971.97241       308.00041        26.900  
  22777897.81046 119698674.76546      -273.50046        43.200    22777900.81741
  93271716.69641      -213.31341        25.600  
  23004298.00446 120145706.61346     -3235.75046        42.200    23004302.38241
  94198773.01541     -2521.50041        17.300  
  20677329.97749 107917414.44849      -656.81349        47.900    20677330.91141
  84091638.84041      -511.93841        29.700  
  23595244.12445 123251181.62545     -3363.31345        39.900    23595241.60541
  96618582.82541     -2620.93841        25.200  
 04 06 07 12 07 22.0000000  0  6G16G25G 6G30G14G22                              
  21896921.23147 114326420.74647      2252.12547        45.400    21896923.19941
  89085673.18241      1754.75041        25.300  
  21751125.62548 113560264.78948       395.50048        46.900    21751127.55441
  88488663.80341       308.00041        24.600  
  22777949.87347 119698948.33347      -273.68847        43.400    22777952.39541
  93271929.85841      -213.43841        17.000  
  23004913.70846 120148942.23446     -3235.56346        42.100    23004918.23841
  94201294.31241     -2521.37541        21.400  
  20677454.99149 107918071.38449      -657.06349        47.900    20677455.96241
  84092150.75241      -512.18841        27.000  
  23595884.15945 123254545.08845     -3363.25045        39.700    23595881.62041
  96621203.68341     -2620.87541        17.200  
 04 06 07 12 07 23.0000000  0  6G16G25G 6G30G14G22                              
  21896492.73947 114324168.99647      2251.37547        45.300    21896494.69041
  89083918.58641      1754.12541        22.000  
  21751050.39348 113559869.46848       395.18848        46.900    21751052.30941
  88488355.77941       307.75041        25.900  
  22778002.05947 119699222.59447      -274.50047        43.400    22778004.55741
  93272143.54641      -214.06341        22.500  
  23005529.48146 120152178.12346     -3236.00046        42.100    23005533.97741
  94203815.74741     -2521.75041        10.100  
  20677580.12749 107918728.97249      -657.68849        47.800    20677581.07841
  84092663.16741      -512.62541        30.500  
  23596524.22145 123257908.72045     -3363.68845        39.900    23596523.79541
  96623824.70641     -2621.25041        27.900  
 04 06 07 12 07 24.0000000  0  6G16G25G 6G30G14G22                              
  21896064.29647 114321917.53947      2251.18847        45.400    21896067.20041
  89082164.22441      1754.00041        25.300  
  21750975.13748 113559474.02548       395.43848        46.900    21750977.26841
  88488047.65041       307.93841        24.800  
  22778054.31446 119699497.26546      -275.18846        43.300    22778055.87741
  93272357.60241      -214.62541        23.900  
  23006145.25346 120155414.00846     -3235.93846        42.300    23006147.16741
  94206337.12341     -2521.68841        28.300  
  20677705.33249 107919386.93449      -658.25049        47.800    20677706.16441
  84093175.86341      -513.06341        27.200  
  23597164.28645 123261272.24545     -3363.37545        40.000    23597163.82741
  96626445.63541     -2621.00041        20.000  
 04 06 07 12 07 25.0000000  0  6G16G25G 6G30G14G22                              
  21895635.94447 114319666.52947      2250.93847        45.400    21895638.82141
  89080410.18241      1753.81341        18.600  
  21750899.89048 113559078.61848       395.25048        47.000    21750902.00541
  88487739.54141       307.81341        27.600  
  22778106.68647 119699772.45947      -275.37547        43.400    22778108.22641
  93272572.06041      -214.75041        23.900  
  23006761.04346 120158650.00746     -3236.00046        41.900    23006762.93741
  94208858.69841     -2521.75041        27.200  
  20677830.63649 107920045.41249      -658.75049        47.800    20677831.44941
  84093688.97441      -513.50041        30.300  
  23597804.34845 123264635.82845     -3363.50045        39.600    23597803.57041
  96629066.63041     -2621.06341        26.300  
 04 06 07 12 07 26.0000000  0  6G16G25G 6G30G14G22                              
  21895207.66747 114317415.89047      2250.50047        45.400    21895210.11041
  89078656.43441      1753.50041        28.600  
  21750824.63448 113558683.14548       395.31348        46.900    21750827.05541
  88487431.36941       307.87541        26.000  
  22778159.13747 119700048.09647      -275.87547        43.400    22778160.01941
  93272786.83341      -215.12541        17.300  
  23007376.83646 120161886.09046     -3236.25046        41.800    23007379.80541
  94211380.37441     -2521.93841        22.500  
  20677956.02749 107920704.33349      -659.31349        47.900    20677957.09441
  84094202.42541      -513.93841        29.000  
  23598444.43045 123267999.37545     -3363.56345        39.600    23598443.61941
  96631687.61341     -2621.12541        24.600  
 04 06 07 12 07 27.0000000  0  6G16G25G 6G30G14G22                              
  21894779.47247 114315165.70047      2249.93847        45.300    21894781.89241
  89076903.04841      1753.06341        25.400  
  21750749.37648 113558287.69648       395.56348        46.800    21750751.77841
  88487123.22541       308.06341        26.300  
  22778211.67946 119700324.29746      -276.31346        43.300    22778212.56841
  93273002.11641      -215.50041        26.000  
  23007992.66546 120165122.28146     -3236.12546        42.100    23007995.60741
  94213902.06441     -2521.81341        22.500  
  20678081.51248 107921363.76348      -659.75048        47.700    20678082.55541
  84094716.26341      -514.25041        25.200  
  23599084.49645 123271362.97145     -3363.31345        39.700    23599083.27341
  96634308.55041     -2620.93841        12.800  
 04 06 07 12 07 28.0000000  0  6G16G25G 6G30G14G22                              
  21894351.31447 114312915.78647      2249.50047        45.400    21894354.29441
  89075149.88541      1752.68841        25.700  
  21750674.09548 113557892.11748       395.37548        46.900    21750676.32841
  88486814.99141       307.93841        26.800  
  22778264.30546 119700600.86546      -277.00046        43.300    22778267.33941
  93273217.66141      -216.00041        25.200  
  23008608.48946 120168358.45146     -3236.43846        42.200    23008609.65041
  94216423.73241     -2522.06341        22.400  
  20678207.07249 107922023.54649      -660.25049        47.800    20678208.23241
  84095230.38141      -514.62541        28.700  
  23599724.54445 123274726.44045     -3363.50045        39.400    23599723.28841
  96636929.41341     -2621.06341        29.200  
 04 06 07 12 07 29.0000000  0  6G16G25G 6G30G14G22                              
  21893923.27247 114310666.41347      2249.25047        45.300    21893926.22641
  89073397.11941      1752.50041        21.500  
  21750598.84548 113557496.66648       395.37548        46.900    21750601.05241
  88486506.84641       307.93841        29.800  
  22778317.05747 119700878.08947      -277.62547        43.400    22778320.06741
  93273433.67041      -216.50041        15.800  
  23009224.36046 120171594.87946     -3236.81346        42.100    23009225.51641
  94218945.68541     -2522.37541        20.300  
  20678332.74448 107922683.96248      -660.93848        47.700    20678333.87741
  84095744.98041      -515.18841        29.300  
  23600364.60845 123278090.07245     -3363.81345        38.900    23600363.57341
  96639550.44441     -2621.31341        23.200  
 04 06 07 12 07 30.0000000  0  6G16G25G 6G30G14G22                              
  21893495.31747 114308417.50447      2248.93847        45.400    21893499.09341
  89071644.73841      1752.25041        27.000  
  21750523.59448 113557101.25548       395.56348        46.900    21750525.42541
  88486198.74241       308.06341        27.500  
  22778369.90847 119701155.84547      -277.68847        43.400    22778372.82241
  93273650.10341      -216.56341        25.900  
  23009840.25446 120174831.40646     -3236.37546        42.000    23009842.23841
  94221467.64341     -2522.00041        15.500  
  20678458.51249 107923344.88849      -660.81349        47.800    20678459.81841
  84096259.99341      -515.06341        27.900  
  23601004.70644 123281453.76144     -3363.56344        38.700    23601003.63941
  96642171.49741     -2621.12541        20.900  
 04 06 07 12 07 31.0000000  0  6G16G25G 6G30G14G22                              
  21893067.44247 114306168.97047      2248.25047        45.400    21893071.19041
  89069892.63441      1751.68841        21.800  
  21750448.34148 113556705.79648       395.25048        46.900    21750450.14741
  88485890.59141       307.81341        23.100  
  22778422.84546 119701434.08646      -278.56346        43.200    22778425.74141
  93273866.89241      -217.25041        23.600  
  23010456.16246 120178068.01646     -3236.75046        42.000    23010458.13141
  94223989.69441     -2522.31341        16.800  
  20678584.36648 107924006.27048      -661.62548        47.700    20678585.64741
  84096775.35141      -515.68841        29.100  
  23601644.74745 123284817.41545     -3363.50045        39.100    23601641.95741
  96644792.64241     -2621.06341        28.800  
 04 06 07 12 07 32.0000000  0  6G16G25G 6G30G14G22                              
  21892639.66647 114303920.95647      2247.81347        45.500    21892642.88841
  89068140.93241      1751.37541        24.000  
  21750373.10148 113556310.43548       395.31348        47.000    21750374.53041
  88485582.53441       307.87541        28.100  
  22778475.90346 119701712.92846      -279.12546        43.300    22778477.95941
  93274084.14441      -217.68841        23.600  
  23011072.10146 120181304.83046     -3236.81346        42.000    23011076.51741
  94226511.88641     -2522.37541        23.600  
  20678710.33149 107924668.24349      -662.31349        47.800    20678711.62441
  84097291.18441      -516.25041        29.000  
  23602284.82945 123288181.17045     -3363.81345        39.400    23602282.03641
  96647413.76941     -2621.31341        26.100  
 04 06 07 12 07 33.0000000  0  6G16G25G 6G30G14G22                              
  21892211.96147 114301673.38047      2247.50047        45.400    21892215.16341
  89066389.55841      1751.12541        20.600  
  21750297.86448 113555915.08948       395.56348        46.900    21750299.27541
  88485274.47341       308.06341        29.400  
  22778529.05946 119701992.31746      -279.50046        43.300    22778531.10241
  93274301.87641      -217.93841        24.700  
  23011688.07846 120184541.77846     -3236.87546        41.800    23011692.47141
  94229034.20841     -2522.37541        10.100  
  20678836.38748 107925330.72348      -662.56348        47.700    20678837.66141
  84097807.40241      -516.43841        29.600  
  23602924.92845 123291544.97245     -3363.56345        39.700    23602922.69741
  96650034.83041     -2621.12541        15.200  
 04 06 07 12 07 34.0000000  0  6G16G25G 6G30G14G22                              
  21891784.34647 114299426.25147      2247.00047        45.400    21891786.90541
  89064638.55641      1750.75041        24.500  
  21750222.63948 113555519.79348       395.18848        47.000    21750223.43341
  88484966.44341       307.75041        28.900  
  22778582.32346 119702272.25846      -280.25046        43.300    22778585.39841
  93274520.00241      -218.56341         9.000  
  23012304.07946 120187778.84946     -3237.18846        41.900    23012309.85541
  94231556.62141     -2522.62541        23.600  
  20678962.55749 107925993.72949      -663.12549        47.800    20678963.30941
  84098324.02841      -516.87541        30.900  
  23603565.05845 123294908.83445     -3363.62545        39.700    23603562.80541
  96652656.05241     -2621.18841        26.700  
 04 06 07 12 07 35.0000000  0  6G16G25G 6G30G14G22                              
  21891356.83747 114297179.61847      2246.56347        45.500    21891359.36541
  89062887.93541      1750.37541        23.200  
  21750147.42348 113555124.55148       395.25048        47.000    21750148.19641
  88484658.46841       307.81341        26.700  
  22778635.69646 119702552.76846      -280.75046        43.200    22778638.76041
  93274738.60741      -218.93841        18.900  
  23012920.08046 120191016.08946     -3237.18846        42.000    23012925.85241
  94234079.11541     -2522.62541        25.200  
  20679088.83349 107926657.29649      -663.75049        47.800    20679089.55841
  84098841.09141      -517.37541        27.000  
  23604205.20445 123298272.77345     -3364.00045        39.900    23604205.37241
  96655277.28641     -2621.43841        25.100  
 04 06 07 12 07 36.0000000  0  6G16G25G 6G30G14G22                              
  21890929.39847 114294933.33947      2246.06347        45.500    21890932.06841
  89061137.60741      1750.00041        24.200  
  21750072.19348 113554729.24248       395.31348        47.000    21750073.17741
  88484350.42641       307.87541        24.700  
  22778689.15046 119702833.73246      -281.06346        43.300    22778693.21641
  93274957.54941      -219.18841        24.800  
  23013536.11946 120194253.38546     -3237.31346        42.000    23013538.92341
  94236601.62841     -2522.75041        10.200  
  20679215.18248 107927321.28348      -664.31348        47.700    20679216.05641
  84099358.48041      -517.81341        28.600  
  23604845.32945 123301636.66445     -3364.00045        40.200    23604845.47541
  96657898.48841     -2621.43841        14.500  
 04 06 07 12 07 37.0000000  0  6G16G25G 6G30G14G22                              
  21890502.04747 114292687.56847      2245.37547        45.500    21890504.68641
  89059387.63741      1749.50041        26.100  
  21749996.97648 113554334.03148       395.12548        47.100    21749997.95241
  88484042.49441       307.75041        26.900  
  22778742.73046 119703115.31546      -282.00046        43.300    22778746.77241
  93275176.94741      -219.87541         9.000  
  23014152.20246 120197490.88946     -3237.43846        41.800    23014154.96941
  94239124.33541     -2522.81341        19.100  
  20679341.64649 107927985.85849      -664.87549        47.800    20679342.49841
  84099876.32341      -518.25041        28.500  
  23605485.47745 123305000.64245     -3363.93845        40.000    23605484.82941
  96660519.77841     -2621.43841        20.700  
 04 06 07 12 07 38.0000000  0  6G16G25G 6G30G14G22                              
  21890074.74948 114290442.08448      2245.37548        45.600    21890077.44241
  89057637.94341      1749.50041        24.600  
  21749921.74248 113553938.69048       395.37548        47.100    21749923.45141
  88483734.43841       307.93841        23.900  
  22778796.37946 119703397.28346      -282.06346        43.100    22778799.95441
  93275396.66341      -219.93841        23.300  
  23014768.27246 120200728.34646     -3237.50046        42.000    23014770.21041
  94241647.02941     -2522.87541        16.700  
  20679468.17949 107928650.80149      -665.06349        47.800    20679469.09241
  84100394.45641      -518.37541        28.800  
  23606125.61245 123308364.53645     -3363.87545        39.800    23606124.93341
  96663140.99241     -2621.37541        15.900  
 04 06 07 12 07 39.0000000  0  6G16G25G 6G30G14G22                              
  21889647.53347 114288197.10847      2244.75047        45.400    21889650.20641
  89055888.59341      1749.00041        26.000  
  21749846.52248 113553543.42248       395.25048        47.100    21749848.21141
  88483426.43641       307.81341        25.100  
  22778850.13246 119703679.83046      -282.81346        43.000    22778853.68441
  93275616.79141      -220.56341        21.700  
  23015384.37246 120203965.97246     -3237.62546        42.300    23015386.29441
  94244169.88841     -2523.00041        25.200  
  20679594.82148 107929316.31248      -665.75048        47.700    20679595.71541
  84100913.05541      -518.93841        29.100  
  23606765.75045 123311728.52745     -3363.87545        40.000    23606764.03741
  96665762.29341     -2621.37541        14.000  
 04 06 07 12 07 40.0000000  0  6G16G25G 6G30G14G22                              
  21889220.42147 114285952.52347      2244.50047        45.400    21889221.32241
  89054139.56541      1748.81341        20.000  
  21749771.29948 113553148.14048       395.37548        47.100    21749772.44741
  88483118.41541       307.93841        25.500  
  22778903.99046 119703962.88446      -283.43846        43.300    22778905.76041
  93275837.35841      -221.00041         9.200  
  23016000.50646 120207203.71946     -3237.93846        42.200    23016001.73741
  94246692.78341     -2523.25041        15.800  
  20679721.55449 107929982.30149      -666.25049        47.800    20679722.74441
  84101432.01541      -519.31341        30.200  
  23607405.88945 123315092.53145     -3364.12545        39.800    23607404.17341
  96668383.64541     -2621.56341        22.000  
 04 06 07 12 07 41.0000000  0  6G16G25G 6G30G14G22                              
  21888793.37548 114283708.34248      2244.12548        45.600    21888794.24641
  89052390.85541      1748.50041        17.500  
  21749696.08348 113552752.83948       395.50048        47.100    21749697.20541
  88482810.39441       308.00041        23.900  
  22778957.93246 119704246.41946      -283.68846        42.900    22778959.69041
  93276058.28341      -221.25041        22.200  
  23016616.64646 120210441.51646     -3237.68846        42.100    23016617.83141
  94249215.67641     -2523.06341        25.900  
  20679848.38149 107930648.74249      -666.56349        47.800    20679849.54141
  84101951.31941      -519.56341        28.000  
  23608046.02345 123318456.49545     -3363.81345        39.900    23608043.86341
  96671004.88041     -2621.31341        27.400  
 04 06 07 12 07 42.0000000  0  6G16G25G 6G30G14G22                              
  21888366.40947 114281464.59847      2243.25047        45.500    21888367.78441
  89050642.49041      1747.81341        25.100  
  21749620.85948 113552357.53948       395.18848        47.000    21749622.67341
  88482502.36941       307.75041        26.600  
  22779011.99046 119704530.48346      -284.56346        43.100    22779012.63941
  93276279.64141      -221.87541        23.600  
  23017232.79146 120213679.45346     -3238.00046        42.000    23017233.37541
  94251738.76741     -2523.25041        23.800  
  20679975.30748 107931315.70448      -667.37548        47.700    20679976.43741
  84102471.02141      -520.18841        26.900  
  23608686.18545 123321820.52945     -3364.18845        39.700    23608683.99641
  96673626.21241     -2621.62541        24.900  
 04 06 07 12 07 43.0000000  0  6G16G25G 6G30G14G22                              
  21887939.51148 114279221.21448      2243.18848        45.700    21887940.85841
  89048894.38041      1747.75041        25.800  
  21749545.62748 113551962.20048       395.31348        47.100    21749547.42441
  88482194.33041       307.87541        25.700  
  22779066.12346 119704815.01946      -284.81346        43.100    22779066.77041
  93276501.39341      -222.12541        24.000  
  23017848.95246 120216917.43146     -3237.87546        42.100    23017849.51641
  94254261.86541     -2523.18841        26.800  
  20680102.30649 107931983.10149      -667.62549        47.800    20680103.41541
  84102991.07641      -520.37541        29.700  
  23609326.35745 123325184.48745     -3363.81345        39.900    23609325.59441
  96676247.53141     -2621.31341        23.900  
 04 06 07 12 07 44.0000000  0  6G16G25G 6G30G14G22                              
  21887512.67948 114276978.16448      2242.75048        45.700    21887515.27141
  89047146.56541      1747.43841        26.500  
  21749470.36148 113551566.75248       395.37548        47.100    21749472.23841
  88481886.20041       307.93841        24.000  
  22779120.35046 119705099.97246      -285.43846        43.000    22779121.37041
  93276723.43341      -222.56341        23.100  
  23018465.13846 120220155.43146     -3238.31346        42.200    23018465.05441
  94256785.01541     -2523.50041        19.900  
  20680229.38448 107932650.88648      -668.12548        47.700    20680230.32341
  84103511.42841      -520.81341        28.100  
  23609966.48245 123328548.39645     -3363.93845        39.400    23609965.71741
  96678868.82241     -2621.43841        26.200  
 04 06 07 12 07 45.0000000  0  6G16G25G 6G30G14G22                              
  21887085.93248 114274735.57448      2242.37548        45.800    21887088.49541
  89045399.08441      1747.12541        24.200  
  21749395.12448 113551171.36348       395.43848        47.100    21749396.97741
  88481578.09241       307.93841        26.800  
  22779174.68646 119705385.47146      -285.62546        43.100    22779175.68741
  93276945.95341      -222.75041        16.900  
  23019081.32146 120223393.56746     -3238.18846        42.000    23019081.22841
  94259308.23341     -2523.43841        23.000  
  20680356.55848 107933319.22148      -668.56348        47.700    20680357.48241
  84104032.22241      -521.12541        28.100  
  23610606.63245 123331912.37345     -3364.31345        39.600    23610607.17441
  96681490.06641     -2621.68841        25.800  
 04 06 07 12 07 46.0000000  0  6G16G25G 6G30G14G22                              
  21886659.27248 114272493.43548      2242.00048        45.800    21886661.68541
  89043651.97341      1746.87541        26.900  
  21749319.88748 113550775.99248       395.37548        47.100    21749321.83541
  88481270.02041       307.93841        29.200  
  22779229.12846 119705671.52046      -286.18846        42.900    22779233.03141
  93277168.85741      -223.18841        24.700  
  23019697.54246 120226631.83646     -3238.50046        41.800    23019697.97141
  94261831.55241     -2523.68841        17.700  
  20680483.83449 107933988.06749      -669.06349        47.800    20680485.13141
  84104553.39341      -521.50041        28.900  
  23611246.78845 123335276.38545     -3363.75045        39.700    23611247.28741
  96684111.32441     -2621.25041        12.800  
 04 06 07 12 07 47.0000000  0  6G16G25G 6G30G14G22                              
  21886232.69648 114270251.77948      2241.31348        45.700    21886235.09241
  89041905.24641      1746.31341        23.200  
  21749244.66248 113550380.68848       395.25048        47.100    21749246.59041
  88480961.99341       307.81341        28.100  
  22779283.66146 119705958.13246      -287.00046        43.100    22779287.54141
  93277392.16441      -223.81341        20.600  
  23020313.77946 120229870.25946     -3238.37546        42.000    23020314.21441
  94264355.06341     -2523.56341        25.600  
  20680611.22048 107934657.46948      -669.75048        47.700    20680612.49541
  84105075.00441      -522.06341        29.800  
  23611886.95045 123338640.50345     -3364.43845        39.700    23611885.85541
  96686732.65141     -2621.81341        24.400  
 04 06 07 12 07 48.0000000  0  6G16G25G 6G30G14G22                              
  21885806.20148 114268010.54748      2241.00048        45.800    21885807.82041
  89040158.79441      1746.06341        18.700  
  21749169.44348 113549985.39648       395.31348        47.200    21749171.58341
  88480653.97141       307.87541        26.800  
  22779338.29546 119706245.28346      -287.43846        43.100    22779339.61041
  93277615.88041      -224.12541        13.600  
  23020930.06546 120233108.82946     -3238.50046        42.100    23020931.81541
  94266878.58941     -2523.68841        26.300  
  20680738.69849 107935327.37749      -670.25049        47.800    20680739.67741
  84105597.00041      -522.43841        30.400  
  23612527.13145 123342004.59945     -3364.12545        39.900    23612526.00541
  96689354.04841     -2621.56341        23.600  
 04 06 07 12 07 49.0000000  0  6G16G25G 6G30G14G22                              
  21885379.81748 114265769.85648      2240.31348        45.900    21885381.41141
  89038412.80641      1745.56341        24.600  
  21749094.24248 113549590.21848       395.12548        47.200    21749096.36341
  88480346.04841       307.75041        22.200  
  22779393.05646 119706533.06146      -288.12546        42.900    22779394.36241
  93277840.16841      -224.68841         9.300  
  23021546.39346 120236347.60946     -3238.87546        42.100    23021548.11741
  94269402.31641     -2523.93841        20.600  
  20680866.28848 107935997.88748      -670.87548        47.700    20680867.25141
  84106119.47341      -522.93841        31.100  
  23613167.29745 123345368.83645     -3364.43845        39.600    23613164.11141
  96691975.58141     -2621.81341        30.200  
 04 06 07 12 07 50.0000000  0  6G16G25G 6G30G14G22                              
  21884953.54548 114263529.69848      2239.81348        45.800    21884954.99741
  89036667.27541      1745.12541        24.400  
  21749019.07148 113549195.15948       395.12548        47.200    21749020.85341
  88480038.21241       307.75041        22.100  
  22779447.93346 119706821.46846      -288.75046        43.000    22779449.33841
  93278064.88041      -225.18841        22.600  
  23022162.75646 120239586.61346     -3238.93846        42.200    23022165.73241
  94271926.24941     -2524.00041        25.500  
  20680994.00148 107936669.01448      -671.37548        47.700    20680994.83741
  84106642.43841      -523.31341        29.000  
  23613807.53245 123348733.22545     -3364.31345        40.000    23613804.31641
  96694597.20141     -2621.68841        25.900  
 04 06 07 12 07 51.0000000  0  6G16G25G 6G30G14G22                              
  21884527.31248 114261289.81648      2239.81348        45.800    21884528.73941
  89034921.92341      1745.12541        26.600  
  21748943.86848 113548799.97348       395.12548        47.200    21748945.63241
  88479730.28041       307.75041        26.200  
  22779502.88946 119707110.24146      -289.06346        43.000    22779504.26941
  93278289.92441      -225.43841        26.500  
  23022779.11646 120242825.59446     -3239.12546        42.100    23022782.07241
  94274450.15141     -2524.18841        29.600  
  20681121.78848 107937340.51348      -671.68848        47.700    20681122.59941
  84107165.69241      -523.56341        30.400  
  23614447.71745 123352097.48745     -3363.87545        40.200    23614445.94041
  96697218.78341     -2621.37541        25.000  
 04 06 07 12 07 52.0000000  0  6G16G25G 6G30G14G22                              
  21884101.17448 114259050.47348      2239.18848        45.900    21884102.69741
  89033176.96841      1744.68841        25.800  
  21748868.69148 113548404.87548       395.18848        47.200    21748871.11141
  88479422.43341       307.75041        28.800  
  22779557.95346 119707399.64646      -289.62546        43.000    22779558.24341
  93278515.39841      -225.87541        27.900  
  23023395.51446 120246064.75846     -3239.00046        42.100    23023396.87941
  94276974.17241     -2524.06341        19.900  
  20681249.68349 107938012.58749      -672.18849        47.800    20681251.03641
  84107689.38441      -523.93841        30.600  
  23615087.92045 123355461.87445     -3364.25045        40.200    23615086.12841
  96699840.33641     -2621.68841        11.800  
 04 06 07 12 07 53.0000000  0  6G16G25G 6G30G14G22                              
  21883675.10248 114256811.41148      2239.06348        45.700    21883676.59141
  89031432.24041      1744.56341        25.700  
  21748793.48948 113548009.65548       395.37548        47.200    21748795.88341
  88479114.47041       307.93841        26.700  
  22779613.10146 119707689.44746      -289.81346        43.000    22779613.37041
  93278741.21341      -226.00041        19.900  
  23024011.89446 120249303.92046     -3238.75046        42.000    23024013.23841
  94279498.16841     -2523.87541        10.300  
  20681377.64448 107938685.05148      -672.68848        47.700    20681378.98441
  84108213.38941      -524.31341        30.600  
  23615728.13245 123358826.16545     -3364.25045        40.300    23615726.92941
  96702461.85341     -2621.68841        20.800  
 04 06 07 12 07 54.0000000  0  6G16G25G 6G30G14G22                              
  21883249.08548 114254572.64848      2238.75048        45.600    21883250.26041
  89029687.74241      1744.31341        23.600  
  21748718.26248 113547614.30748       395.43848        47.200    21748720.95841
  88478806.41341       307.93841        24.700  
  22779668.32146 119707979.64146      -290.50046        42.900    22779669.58741
  93278967.36241      -226.50041         9.300  
  23024628.27846 120252543.05646     -3239.06346        42.000    23024631.73641
  94282022.20241     -2524.12541        10.200  
  20681505.67048 107939357.86748      -672.81348        47.700    20681507.14441
  84108737.65741      -524.43841        29.800  
  23616368.32145 123362190.33145     -3364.06345        40.400    23616367.09541
  96705083.31041     -2621.50041        25.000  
 04 06 07 12 07 55.0000000  0  6G16G25G 6G30G14G22                              
  21882823.16148 114252334.38548      2237.87548        45.700    21882824.31441
  89027943.64941      1743.62541        26.600  
  21748643.04648 113547219.02948       395.25048        47.200    21748645.71541
  88478498.40541       307.81341        25.600  
  22779723.65446 119708270.39346      -291.18846        42.900    22779724.90941
  93279193.97641      -227.06341        24.300  
  23025244.68746 120255782.36346     -3239.31346        42.100    23025248.13841
  94284546.35941     -2524.31341        10.200  
  20681633.80648 107940031.26048      -673.62548        47.700    20681635.26441
  84109262.37841      -525.06341        28.700  
  23617008.52245 123365554.59945     -3364.37545        40.600    23617010.20341
  96707704.81941     -2621.75041        14.300  
 04 06 07 12 07 56.0000000  0  6G16G25G 6G30G14G22                              
  21882397.30948 114250096.48748      2237.87548        45.600    21882399.74841
  89026199.84241      1743.62541        22.300  
  21748567.82248 113546823.71748       395.37548        47.200    21748569.80641
  88478190.38641       307.93841        28.600  
  22779779.07146 119708561.64246      -291.50046        42.900    22779781.58741
  93279420.90641      -227.31341        25.300  
  23025861.11446 120259021.73446     -3239.37546        41.900    23025862.63341
  94287070.50241     -2524.37541        28.600  
  20681762.03048 107940705.09048      -673.93848        47.700    20681763.36841
  84109787.44241      -525.31341        29.700  
  23617648.72945 123368918.83345     -3364.43845        40.400    23617650.37841
  96710326.31741     -2621.81341        12.000  
 04 06 07 12 07 57.0000000  0  6G16G25G 6G30G14G22                              
  21881971.52748 114247858.99748      2237.31348        45.600    21881973.94341
  89024456.36141      1743.18841        22.700  
  21748492.59948 113546428.38148       395.37548        47.200    21748494.55441
  88477882.32541       307.93841        27.300  
  22779834.56446 119708853.38346      -292.31346        42.900    22779837.07741
  93279648.21641      -227.93841        27.900  
  23026477.56146 120262261.19846     -3239.62546        41.800    23026479.05941
  94289594.74941     -2524.56341        27.700  
  20681890.34948 107941379.41748      -674.81348        47.700    20681891.66641
  84110312.89041      -526.00041        28.600  
  23618288.92745 123372283.07345     -3364.43845        40.300    23618289.96241
  96712947.81941     -2621.81341        23.500  
 04 06 07 12 07 58.0000000  0  6G16G25G 6G30G14G22                              
  21881545.87648 114245622.15648      2236.75048        45.600    21881548.94941
  89022713.38641      1742.75041        20.100  
  21748417.41148 113546033.27248       395.18848        47.300    21748418.92341
  88477574.42841       307.75041        26.500  
  22779890.21446 119709145.84946      -292.62546        42.900    22779891.26041
  93279876.13041      -228.18841        28.000  
  23027094.07146 120265500.97246     -3239.81346        42.000    23027097.07141
  94292119.26141     -2524.68841        10.200  
  20682018.79249 107942054.44649      -675.37549        47.800    20682019.80541
  84110838.88441      -526.43841        29.000  
  23618929.16645 123375647.52445     -3364.50045        40.200    23618930.16641
  96715569.43041     -2621.87541        23.800  
 04 06 07 12 07 59.0000000  0  6G16G25G 6G30G14G22                              
  21881120.29148 114243385.69748      2236.25048        45.800    21881123.34241
  89020970.68241      1742.37541        22.100  
  21748342.21348 113545638.12448       395.18848        47.200    21748343.70741
  88477266.52041       307.75041        26.300  
  22779945.96646 119709438.80246      -293.12546        42.800    22779946.98841
  93280104.41941      -228.56341        25.500  
  23027710.57146 120268740.80146     -3239.87546        42.000    23027713.56341
  94294643.79441     -2524.75041        26.100  
  20682147.32448 107942729.91848      -675.68848        47.700    20682148.32341
  84111365.23541      -526.68841        27.900  
  23619569.40445 123379011.97145     -3364.68845        40.100    23619568.00341
  96718190.99641     -2622.00041        19.300  
 04 06 07 12 08  0.0000000  0  6G16G25G 6G30G14G22                              
  21880694.82648 114241149.82548      2235.62548        45.900    21880697.56641
  89019228.43541      1741.87541        25.900  
  21748267.05748 113545243.14948       394.93848        47.300    21748267.99741
  88476958.74641       307.56341        26.700  
  22780001.84446 119709732.43846      -293.93846        42.800    22780002.94641
  93280333.22841      -229.18841         9.300  
  23028327.14746 120271980.92646     -3240.43846        41.800    23028329.06741
  94297168.52941     -2525.18841        28.500  
  20682275.99249 107943406.06349      -676.50049        47.800    20682277.19741
  84111892.09841      -527.31341        30.400  
  23620209.67645 123382376.61445     -3364.75045        39.800    23620208.26941
  96720812.86341     -2622.06341        26.500  
 04 06 07 12 08  1.0000000  0  6G16G25G 6G30G14G22                              
  21880269.46648 114238914.47948      2234.87548        46.000    21880272.17041
  89017486.59941      1741.31341        17.400  
  21748191.91748 113544848.26348       395.00048        47.200    21748192.84041
  88476651.06741       307.62541        20.100  
  22780057.82946 119710026.68846      -294.56346        42.800    22780058.91341
  93280562.48441      -229.68841        27.300  
  23028943.73746 120275221.23046     -3240.31346        41.900    23028945.64841
  94299693.41641     -2525.06341        21.400  
  20682404.76948 107944082.78848      -677.25048        47.700    20682405.95241
  84112419.41841      -527.87541        30.900  
  23620849.97045 123385741.34645     -3364.75045        40.000    23620847.54341
  96723434.75041     -2622.06341        19.300  
 04 06 07 12 08  2.0000000  0  6G16G25G 6G30G14G22                              
  21879844.18348 114236679.59048      2234.68848        46.100    21879846.63741
  89015745.11741      1741.12541        25.000  
  21748116.78748 113544453.43248       394.93848        47.300    21748118.54241
  88476343.40641       307.56341        29.100  
  22780113.91946 119710321.49846      -294.93846        42.600    22780115.21241
  93280792.17641      -230.00041        19.000  
  23029560.37546 120278461.68446     -3240.31346        42.000    23029563.08341
  94302218.50441     -2525.06341        18.800  
  20682533.65248 107944760.04248      -677.50048        47.700    20682534.66841
  84112947.15141      -528.06341        27.300  
  23621490.28145 123389106.15445     -3364.75045        39.800    23621487.81941
  96726056.66541     -2622.06341        12.300  
 04 06 07 12 08  3.0000000  0  6G16G25G 6G30G14G22                              
  21879418.97448 114234445.06148      2234.18848        46.100    21879421.39741
  89014003.92641      1740.75041        19.200  
  21748041.64248 113544058.53548       394.93848        47.200    21748043.37741
  88476035.71141       307.56341        20.700  
  22780170.09646 119710616.77546      -295.43846        42.600    22780171.38541
  93281022.28741      -230.37541        22.000  
  23030177.00946 120281702.18146     -3240.37546        41.900    23030179.72241
  94304743.64041     -2525.12541        10.300  
  20682662.61848 107945437.72948      -677.93848        47.700    20682663.60741
  84113475.21541      -528.43841        27.700  
  23622130.55945 123392470.89145     -3364.37545        40.000    23622130.14941
  96728678.56741     -2621.75041        24.200  
 04 06 07 12 08  4.0000000  0  6G16G25G 6G30G14G22                              
  21878993.85748 114232210.96448      2234.00048        46.000    21878996.24641
  89012263.08841      1740.62541        29.400  
  21747966.49648 113543663.67348       394.87548        47.300    21747968.55541
  88475728.02741       307.50041        27.600  
  22780226.36746 119710912.56346      -296.00046        42.700    22780228.52241
  93281252.79941      -230.81341        25.300  
  23030793.67046 120284942.81746     -3240.62546        42.200    23030797.22941
  94307268.79441     -2525.31341        22.500  
  20682791.67148 107946115.93848      -678.37548        47.700    20682792.76141
  84114003.68741      -528.75041        27.600  
  23622770.85045 123395835.67845     -3364.87545        40.500    23622770.41941
  96731300.46741     -2622.12541        26.600  
 04 06 07 12 08  5.0000000  0  6G16G25G 6G30G14G22                              
  21878568.81348 114229977.24948      2233.43848        46.100    21878571.16041
  89010522.53941      1740.18841        22.600  
  21747891.35048 113543268.73348       394.87548        47.300    21747893.38041
  88475420.27641       307.50041        27.600  
  22780282.72546 119711208.81746      -296.43846        42.700    22780284.88541
  93281483.68141      -231.12541        14.600  
  23031410.34346 120288183.48946     -3240.68846        42.300    23031413.88641
  94309793.99241     -2525.37541        10.500  
  20682920.82249 107946794.57649      -678.81349        47.800    20682921.88041
  84114532.49741      -529.12541        28.300  
  23623411.16445 123399200.43645     -3364.68845        40.700    23623407.75141
  96733922.31041     -2622.00041        23.400  
 04 06 07 12 08  6.0000000  0  6G16G25G 6G30G14G22                              
  21878143.79148 114227743.71948      2233.62548        46.000    21878146.36341
  89008782.11941      1740.31341        24.300  
  21747816.14848 113542873.58848       395.31348        47.300    21747818.10741
  88475112.37041       307.87541        26.600  
  22780339.15446 119711505.36846      -296.56346        42.700    22780342.41241
  93281714.78541      -231.25041        27.000  
  23032026.98546 120291424.04246     -3240.56346        42.000    23032031.42041
  94312319.10941     -2525.25041        25.600  
  20683050.01849 107947473.50049      -679.06349        47.800    20683050.97641
  84115061.53741      -529.31341        30.200  
  23624051.42945 123402564.97845     -3364.37545        40.900    23624047.97941
  96736544.01741     -2621.75041        20.900  
 04 06 07 12 08  7.0000000  0  6G16G25G 6G30G14G22                              
  21877718.86548 114225510.63448      2232.93848        45.900    21877721.39941
  89007042.06041      1739.81341        26.800  
  21747740.95148 113542478.43948       395.18848        47.300    21747742.89841
  88474804.47941       307.75041        28.500  
  22780395.67046 119711802.44746      -297.31346        42.700    22780398.92141
  93281946.25641      -231.81341        18.200  
  23032643.65646 120294664.71246     -3240.75046        42.000    23032648.07341
  94314844.29741     -2525.43841        23.800  
  20683179.30049 107948152.91749      -679.62549        47.800    20683180.23741
  84115590.95241      -529.75041        28.900  
  23624691.68545 123405929.55345     -3364.68845        40.700    23624689.12241
  96739165.82541     -2622.00041        11.400  
 04 06 07 12 08  8.0000000  0  6G16G25G 6G30G14G22                              
  21877294.01648 114223277.99848      2232.12548        45.900    21877296.39141
  89005302.33641      1739.12541        23.600  
  21747665.76648 113542083.34348       394.93848        47.300    21747667.82841
  88474496.61341       307.56341        26.000  
  22780452.29046 119712100.06746      -298.12546        42.700    22780454.66541
  93282178.13041      -232.50041        21.500  
  23033260.35746 120297905.52446     -3241.06346        42.100    23033263.62141
  94317369.48741     -2525.68841        21.700  
  20683308.68448 107948832.85148      -680.25048        47.700    20683309.61241
  84116120.76941      -530.25041        26.800  
  23625331.95045 123409294.14445     -3364.62545        40.800    23625329.37741
  96741787.64141     -2621.93841        11.500  
 04 06 07 12 08  9.0000000  0  6G16G25G 6G30G14G22                              
  21876869.26348 114221045.87848      2231.93848        46.000    21876871.60941
  89003563.01941      1739.00041        23.800  
  21747590.60548 113541688.33648       395.00048        47.300    21747592.63341
  88474188.80441       307.62541        28.100  
  22780509.03746 119712398.31146      -298.43846        42.700    22780511.40241
  93282410.54841      -232.68841        10.800  
  23033877.09146 120301146.53246     -3241.25046        42.000    23033880.33841
  94319894.92841     -2525.81341        24.600  
  20683438.19648 107949513.40548      -680.75048        47.700    20683439.09741
  84116651.07141      -530.62541        29.100  
  23625972.24445 123412658.88845     -3364.87545        41.000    23625971.93941
  96744409.49741     -2622.12541        17.900  
 04 06 07 12 08 10.0000000  0  6G16G25G 6G30G14G22                              
  21876444.60548 114218814.26448      2231.43848        46.100    21876446.89441
  89001824.12541      1738.62541        27.200  
  21747515.44648 113541293.40748       395.00048        47.300    21747516.93541
  88473881.06541       307.62541        21.700  
  22780565.90546 119712697.15346      -299.00046        42.700    22780567.67041
  93282643.40341      -233.12541        25.000  
  23034493.87246 120304387.73346     -3241.37546        42.000    23034495.37341
  94322420.52041     -2525.93841        16.200  
  20683567.80249 107950194.51049      -681.18849        47.800    20683568.84941
  84117181.80241      -530.93841        27.500  
  23626612.57345 123416023.69145     -3364.43845        41.000    23626612.20341
  96747031.38341     -2621.81341        25.700  
 04 06 07 12 08 11.0000000  0  6G16G25G 6G30G14G22                              
  21876020.03848 114216583.08248      2230.93848        46.000    21876022.29241
  89000085.55241      1738.25041        25.700  
  21747440.30248 113540898.48748       394.87548        47.300    21747441.76341
  88473573.34241       307.50041        27.500  
  22780622.85446 119712996.50846      -299.81346        42.800    22780624.62441
  93282876.70041      -233.81341        24.600  
  23035110.67546 120307629.04346     -3241.50046        42.100    23035112.15841
  94324946.24041     -2526.00041        27.300  
  20683697.51148 107950876.12648      -681.87548        47.700    20683698.53141
  84117712.91241      -531.50041        31.100  
  23627252.88845 123419388.55245     -3364.93845        41.100    23627252.30941
  96749653.40541     -2622.18841        22.900  
 04 06 07 12 08 12.0000000  0  6G16G25G 6G30G14G22                              
  21875595.54848 114214352.35648      2230.62548        46.000    21875598.16041
  88998347.32541      1738.00041        23.600  
  21747365.16048 113540503.61148       394.81348        47.300    21747366.71541
  88473265.65341       307.50041        24.300  
  22780679.91246 119713296.42946      -300.00046        42.500    22780683.21541
  93283110.39641      -233.93841        25.400  
  23035727.49646 120310870.48146     -3241.43846        42.100    23035728.93641
  94327472.02541     -2525.93841        10.100  
  20683827.31649 107951558.28049      -682.50049        47.800    20683827.98641
  84118244.46641      -532.00041        26.800  
  23627893.22045 123422753.45545     -3364.87545        40.900    23627892.59941
  96752275.37141     -2622.12541        18.000  
 04 06 07 12 08 13.0000000  0  6G16G25G 6G30G14G22                              
  21875171.10648 114212121.87748      2230.18848        46.000    21875173.69441
  88996609.29241      1737.62541        21.300  
  21747289.98148 113540108.54648       395.12548        47.200    21747291.51841
  88472957.82941       307.75041        26.500  
  22780737.04046 119713596.67546      -300.18846        42.600    22780740.32041
  93283344.32541      -234.06341        19.500  
  23036344.31846 120314111.85746     -3241.43846        42.000    23036345.73641
  94329997.80641     -2525.93841        10.200  
  20683957.18548 107952240.73348      -682.56348        47.700    20683957.83141
  84118776.25741      -532.06341        28.700  
  23628533.51545 123426118.19845     -3364.62545        40.600    23628530.75741
  96754897.24241     -2621.93841        11.900  
 04 06 07 12 08 14.0000000  0  6G16G25G 6G30G14G22                              
  21874746.73048 114209891.68848      2230.06348        46.100    21874748.34841
  88994871.45441      1737.56341        21.100  
  21747214.77748 113539713.35748       395.25048        47.200    21747216.88041
  88472649.89641       307.81341        28.300  
  22780794.26246 119713897.33846      -301.00046        42.600    22780797.07041
  93283578.59041      -234.68841        28.200  
  23036961.11646 120317353.20846     -3241.50046        41.900    23036965.46541
  94332523.58741     -2526.00041        19.300  
  20684087.11448 107952923.56448      -682.93848        47.700    20684088.24341
  84119308.34141      -532.31341        27.400  
  23629173.77445 123429482.80045     -3364.37545        40.800    23629171.01641
  96757519.08341     -2621.75041        26.600  
 04 06 07 12 08 15.0000000  0  6G16G25G 6G30G14G22                              
  21874322.44348 114207661.97848      2229.43848        46.000    21874324.02541
  88993134.00641      1737.06341        24.900  
  21747139.58848 113539318.23048       395.12548        47.300    21747141.67241
  88472342.02541       307.75041        26.000  
  22780851.54846 119714198.53046      -301.43846        42.700    22780854.36541
  93283813.30241      -235.06341        25.100  
  23037577.96046 120320594.72546     -3241.68846        42.000    23037582.28541
  94335049.45541     -2526.12541        21.200  
  20684217.16449 107953606.94749      -683.62549        47.800    20684218.26041
  84119840.83841      -532.87541        31.100  
  23629814.05845 123432847.52845     -3364.68845        40.600    23629814.19341
  96760140.87841     -2622.00041        20.100  
 04 06 07 12 08 16.0000000  0  6G16G25G 6G30G14G22                              
  21873898.22548 114205432.70648      2228.93848        46.000    21873899.54241
  88991396.92841      1736.68841        24.800  
  21747064.39048 113538923.10948       394.93848        47.300    21747066.93141
  88472034.13841       307.56341        26.200  
  22780908.94546 119714500.27946      -302.31346        42.600    22780911.93641
  93284048.42841      -235.75041        25.300  
  23038194.80546 120323836.34746     -3241.87546        41.900    23038200.19841
  94337575.40041     -2526.31341        10.000  
  20684347.30249 107954290.83449      -684.31349        47.800    20684348.10441
  84120373.74441      -533.37541        29.100  
  23630454.33445 123436212.26345     -3365.06345        39.900    23630454.47241
  96762762.79741     -2622.31341        12.100  
 04 06 07 12 08 17.0000000  0  6G16G25G 6G30G14G22                              
  21873474.12548 114203203.97548      2228.62548        46.000    21873475.40641
  88989660.24641      1736.43841        25.300  
  21746989.23948 113538528.11548       395.00048        47.200    21746991.74441
  88471726.35141       307.62541        23.900  
  22780966.48246 119714802.66146      -302.68846        42.800    22780969.45741
  93284284.05741      -236.00041        28.600  
  23038811.70346 120327078.20546     -3241.87546        42.300    23038817.07641
  94340101.51241     -2526.31341        18.900  
  20684477.56248 107954975.33848      -684.62548        47.700    20684478.34041
  84120907.13141      -533.62541        29.100  
  23631094.63845 123439577.12645     -3364.87545        40.300    23631093.51541
  96765384.74941     -2622.12541        22.200  
 04 06 07 12 08 18.0000000  0  6G16G25G 6G30G14G22                              
  21873050.10948 114200975.71148      2228.00048        45.900    21873050.84241
  88987923.95241      1735.93841        23.200  
  21746914.08348 113538133.15748       394.87548        47.300    21746916.36441
  88471418.58141       307.50041        28.400  
  22781024.12146 119715105.57846      -303.25046        42.700    22781027.86441
  93284520.15241      -236.43841        23.500  
  23039428.61346 120330320.18846     -3241.93846        42.100    23039431.62841
  94342627.72041     -2526.37541        25.900  
  20684607.92248 107955660.36548      -685.37548        47.700    20684608.66341
  84121440.91641      -534.25041        31.000  
  23631734.95645 123442942.04045     -3364.87545        40.100    23631733.83341
  96768006.83941     -2622.12541        26.900  
 04 06 07 12 08 19.0000000  0  6G16G25G 6G30G14G22                              
  21872626.19548 114198747.96348      2227.50048        46.200    21872626.89741
  88986188.07241      1735.56341        21.800  
  21746838.94748 113537738.29748       394.87548        47.300    21746841.20041
  88471110.88741       307.50041        25.800  
  22781081.88046 119715409.12846      -303.87546        42.700    22781085.61241
  93284756.69941      -236.93841        26.700  
  23040045.58146 120333562.40546     -3242.31346        42.100    23040048.58341
  94345154.13141     -2526.62541        17.700  
  20684738.38949 107956345.98549      -685.87549        47.800    20684739.11141
  84121975.16541      -534.62541        30.000  
  23632375.31145 123446307.09345     -3365.18845        40.400    23632375.20841
  96770628.92541     -2622.37541        13.000  
 04 06 07 12 08 20.0000000  0  6G16G25G 6G30G14G22                              
  21872202.35948 114196520.59348      2227.31348        46.100    21872203.50141
  88984452.44941      1735.37541        24.900  
  21746763.80948 113537343.39448       394.93848        47.100    21746765.56941
  88470803.16841       307.56341        27.700  
  22781139.72846 119715713.14346      -304.06346        42.800    22781144.38141
  93284993.58341      -237.12541         9.600  
  23040662.55546 120336804.65146     -3242.43846        42.100    23040666.05441
  94347680.58541     -2526.75041        22.000  
  20684868.95149 107957032.06149      -686.31349        47.800    20684870.12441
  84122509.77241      -534.93841        30.300  
  23633015.64345 123449672.08045     -3364.93845        40.700    23633015.52441
  96773251.00641     -2622.18841        20.700  
 04 06 07 12 08 21.0000000  0  6G16G25G 6G30G14G22                              
  21871778.60448 114194293.70448      2226.75048        46.000    21871779.71441
  88982717.21041      1734.93841        23.000  
  21746688.67248 113536948.54848       394.81348        47.300    21746690.41241
  88470495.50441       307.50041        23.800  
  22781197.68646 119716017.73346      -304.68846        42.700    22781202.31741
  93285230.92541      -237.56341        26.800  
  23041279.54946 120340047.05046     -3242.62546        42.100    23041283.04341
  94350207.14541     -2526.87541        22.100  
  20684999.62148 107957718.69748      -687.06348        47.700    20685000.76041
  84123044.79941      -535.56341        28.000  
  23633656.00845 123453037.16045     -3365.06345        40.600    23633655.90741
  96775873.14341     -2622.31341        24.400  
 04 06 07 12 08 22.0000000  0  6G16G25G 6G30G14G22                              
  21871354.90648 114192067.11748      2226.43848        45.900    21871356.35141
  88980982.21641      1734.75041        27.000  
  21746613.51148 113536553.57148       395.06348        47.300    21746616.29141
  88470187.73741       307.68841        27.700  
  22781255.73146 119716322.72846      -305.37546        42.700    22781259.65341
  93285468.59841      -238.12541        22.600  
  23041896.56946 120343289.43846     -3242.68846        42.000    23041901.73241
  94352733.72441     -2526.93841        15.900  
  20685130.35148 107958405.68948      -687.18848        47.700    20685131.34541
  84123580.10741      -535.62541        29.400  
  23634296.34045 123456402.12345     -3365.18845        41.100    23634296.20441
  96778495.15441     -2622.37541        25.500  
 04 06 07 12 08 23.0000000  0  6G16G25G 6G30G14G22                              
  21870931.27948 114189840.92948      2225.93848        46.100    21870932.70541
  88979247.55241      1734.31341        21.900  
  21746538.34748 113536158.59248       395.00048        47.200    21746541.11341
  88469879.98541       307.62541        27.100  
  22781313.84746 119716628.21046      -305.87546        42.900    22781317.75641
  93285706.61641      -238.50041        22.100  
  23042513.58146 120346531.91546     -3242.56346        42.200    23042518.73041
  94355260.31541     -2526.81341        17.800  
  20685261.18248 107959093.17548      -687.62548        47.700    20685262.14541
  84124115.80141      -536.00041        29.200  
  23634936.67546 123459767.07746     -3365.00046        41.200    23634933.56941
  96781117.14441     -2622.25041        24.500  
 04 06 07 12 08 24.0000000  0  6G16G25G 6G30G14G22                              
  21870507.76748 114187615.34648      2225.25048        46.000    21870508.97141
  88977513.31341      1733.81341        25.000  
  21746463.21148 113535763.78548       394.75048        47.200    21746466.03241
  88469572.35141       307.43841        19.500  
  22781372.09846 119716934.37146      -306.43846        42.900    22781374.04741
  93285945.12841      -238.93841        22.400  
  23043130.66646 120349774.65646     -3242.68846        42.100    23043133.83741
  94357787.05041     -2526.93841        30.400  
  20685392.12148 107959781.30848      -688.37548        47.700    20685392.61641
  84124652.01641      -536.56341        29.300  
  23635577.05046 123463132.21246     -3365.25046        41.200    23635573.92741
  96783739.39941     -2622.43841        15.600  
 04 06 07 12 08 25.0000000  0  6G16G25G 6G30G14G22                              
  21870084.34648 114185390.23748      2224.81348        46.000    21870085.52441
  88975779.46941      1733.43841        25.000  
  21746388.08248 113535369.03848       394.75048        47.300    21746390.89041
  88469264.75541       307.43841        27.700  
  22781430.46346 119717241.12646      -307.12546        42.900    22781432.39141
  93286184.13741      -239.50041        27.300  
  23043747.77646 120353017.55546     -3243.00046        42.100    23043750.90741
  94360313.92741     -2527.18841        21.200  
  20685523.18048 107960470.00948      -688.81348        47.700    20685523.65441
  84125188.67241      -536.87541        30.800  
  23636217.45546 123466497.42446     -3365.18846        41.600    23636214.19041
  96786361.59841     -2622.37541        27.200  
 04 06 07 12 08 26.0000000  0  6G16G25G 6G30G14G22                              
  21869661.00048 114183165.51548      2224.43848        46.100    21869662.63841
  88974045.92041      1733.18841        24.000  
  21746312.95648 113534974.25948       394.62548        47.200    21746315.44341
  88468957.14241       307.31341        26.500  
  22781488.91646 119717548.35546      -307.62546        42.800    22781491.01541
  93286423.55241      -239.87541        25.900  
  23044364.88946 120356260.54546     -3243.18846        42.000    23044367.43141
  94362840.93441     -2527.31341        13.100  
  20685654.31748 107961159.17848      -689.43848        47.700    20685654.88441
  84125725.68541      -537.37541        28.900  
  23636857.82546 123469862.60346     -3365.31346        41.300    23636854.55941
  96788983.89541     -2622.50041        19.000  
 04 06 07 12 08 27.0000000  0  6G16G25G 6G30G14G22                              
  21869237.74348 114180941.21448      2224.25048        46.100    21869239.34241
  88972312.68941      1733.00041        18.800  
  21746237.82548 113534579.47448       394.75048        47.200    21746240.29841
  88468649.52741       307.43841        27.900  
  22781547.45746 119717856.10046      -307.81346        42.900    22781549.56141
  93286663.38841      -240.00041        24.600  
  23044982.02146 120359503.63546     -3243.18846        42.400    23044984.56641
  94365368.06841     -2527.31341         9.900  
  20685785.55848 107961848.84048      -690.06348        47.700    20685786.09741
  84126263.08241      -537.87541        28.700  
  23637498.20845 123473227.82445     -3365.37545        41.100    23637497.86141
  96791606.19841     -2622.56341        17.900  
 04 06 07 12 08 28.0000000  0  6G16G25G 6G30G14G22                              
  21868814.55948 114178717.26548      2223.93848        46.100    21868816.36341
  88970579.74141      1732.75041        16.100  
  21746162.68248 113534184.60148       395.12548        47.300    21746165.58641
  88468341.84141       307.75041        26.500  
  22781606.09646 119718164.28746      -308.43846        43.200    22781608.69941
  93286903.52441      -240.50041        16.500  
  23045599.17246 120362746.71746     -3243.00046        42.200    23045601.85141
  94367895.14741     -2527.18841         9.900  
  20685916.86948 107962538.89948      -690.31348        47.700    20685917.51241
  84126800.80941      -538.06341        26.900  
  23638138.58546 123476592.96546     -3365.12546        41.200    23638138.21241
  96794228.42641     -2622.31341        18.900  
 04 06 07 12 08 29.0000000  0  6G16G25G 6G30G14G22                              
  21868391.40348 114176493.48248      2223.62548        46.100    21868393.16641
  88968846.92241      1732.50041        26.000  
  21746087.49948 113533789.49248       395.18848        47.200    21746090.37441
  88468033.93741       307.75041        22.100  
  22781664.78246 119718472.73446      -308.62546        42.900    22781667.37741
  93287143.90641      -240.62541        16.600  
  23046216.27846 120365989.67146     -3243.00046        41.900    23046218.93441
  94370422.10441     -2527.18841        10.300  
  20686048.23348 107963229.21748      -690.50048        47.700    20686048.85841
  84127338.73041      -538.18841        29.400  
  23638778.91645 123479957.86645     -3364.87545        40.900    23638779.12741
  96796850.45041     -2622.12541        24.200  
 04 06 07 12 08 30.0000000  0  6G16G25G 6G30G14G22                              
  21867968.33848 114174270.20748      2223.18848        46.000    21867970.61141
  88967114.53641      1732.18841        25.300  
  21746012.32848 113533394.46248       395.06348        47.200    21746014.18441
  88467726.11941       307.68841        26.700  
  22781723.58046 119718781.77246      -309.18846        42.900    22781726.75941
  93287384.71741      -241.06341        20.200  
  23046833.42446 120369232.80746     -3243.18846        42.300    23046837.11641
  94372949.20841     -2527.31341        15.800  
  20686179.69949 107963920.10549      -691.12549        47.800    20686180.70841
  84127877.09241      -538.68841        29.900  
  23639419.27745 123483322.87845     -3365.12545        40.800    23639419.43441
  96799472.48841     -2622.31341        26.000  
 04 06 07 12 08 31.0000000  0  6G16G25G 6G30G14G22                              
  21867545.38848 114172047.48348      2222.37548        46.000    21867547.62041
  88965382.56041      1731.56341        28.700  
  21745937.17648 113532999.56748       394.62548        47.200    21745939.02041
  88467418.42641       307.31341        28.100  
  22781782.49246 119719091.49146      -310.18846        42.900    22781785.67841
  93287626.09441      -241.87541        23.900  
  23047450.62946 120372476.16646     -3243.62546        42.100    23047454.29041
  94375476.52941     -2527.68841        23.000  
  20686311.29548 107964611.62348      -692.00048        47.700    20686312.27641
  84128415.93441      -539.37541        30.700  
  23640059.63945 123486688.01445     -3365.31345        40.800    23640058.82841
  96802094.58141     -2622.50041        27.000  
 04 06 07 12 08 32.0000000  0  6G16G25G 6G30G14G22                              
  21867122.51548 114169825.19348      2222.06348        46.000    21867124.63141
  88963650.88841      1731.31341        25.500  
  21745862.03348 113532604.66948       394.87548        47.200    21745863.84641
  88467110.71141       307.50041        28.000  
  22781841.50746 119719401.69846      -310.50046        42.800    22781845.13441
  93287867.79741      -242.12541         9.300  
  23048067.82946 120375719.63546     -3243.75046        42.000    23048071.27241
  94378003.90541     -2527.75041        21.900  
  20686442.98148 107965303.63148      -692.37548        47.700    20686444.24941
  84128955.16141      -539.68841        29.100  
  23640700.02145 123490053.17445     -3365.43845        40.500    23640699.18541
  96804716.84041     -2622.56341        28.200  
 04 06 07 12 08 33.0000000  0  6G16G25G 6G30G14G22                              
  21866699.72748 114167603.39848      2221.68848        46.100    21866701.81741
  88961919.62841      1731.00041        22.700  
  21745786.91548 113532209.86648       394.81348        47.200    21745788.69741
  88466803.08041       307.50041        22.300  
  22781900.65846 119719712.51146      -310.93846        43.100    22781904.26641
  93288110.02041      -242.43841         9.300  
  23048685.07346 120378963.28746     -3243.68846        42.000    23048688.49241
  94380531.40641     -2527.68841        28.300  
  20686574.76948 107965996.20648      -692.68848        47.600    20686576.01741
  84129494.83241      -539.93841        28.700  
  23641340.42045 123493418.42145     -3365.18845        40.200    23641339.93641
  96807339.14041     -2622.37541        23.600  
 04 06 07 12 08 34.0000000  0  6G16G25G 6G30G14G22                              
  21866277.03448 114165382.10248      2220.87548        46.000    21866278.71841
  88960188.72241      1730.37541        22.900  
  21745711.79848 113531815.11548       394.62548        47.200    21745713.26241
  88466495.48941       307.31341        21.500  
  22781959.91646 119720023.90846      -311.75046        43.000    22781962.71741
  93288352.61541      -243.06341        27.200  
  23049302.33646 120382207.10746     -3244.06346        42.000    23049305.29441
  94383059.00641     -2528.00041        10.100  
  20686706.67448 107966689.37548      -693.56348        47.700    20686708.18241
  84130034.96241      -540.62541        30.000  
  23641980.79345 123496783.77045     -3365.12545        40.000    23641980.29541
  96809961.39041     -2622.31341        11.900  
 04 06 07 12 08 35.0000000  0  6G16G25G 6G30G14G22                              
  21865854.43848 114163161.29448      2220.37548        46.000    21865856.08941
  88958458.22741      1730.00041        22.400  
  21745636.69148 113531420.43948       394.68848        47.200    21745638.13541
  88466187.94841       307.37541        25.900  
  22782019.28246 119720335.90046      -312.50046        42.800    22782022.06441
  93288595.72241      -243.68841        22.300  
  23049919.62946 120385451.07646     -3243.87546        42.100    23049922.58441
  94385586.79941     -2527.87541        27.700  
  20686838.68248 107967383.07348      -693.93848        47.700    20686840.16341
  84130575.49541      -540.87541        30.300  
  23642621.17945 123500149.20845     -3365.68845        40.100    23642617.78441
  96812583.89841     -2622.75041        18.300  
 04 06 07 12 08 36.0000000  0  6G16G25G 6G30G14G22                              
  21865431.94448 114160941.02448      2220.18848        45.900    21865434.02441
  88956728.14641      1729.87541        23.200  
  21745561.60148 113531025.88748       394.62548        47.300    21745563.50641
  88465880.50341       307.31341        27.900  
  22782078.76746 119720648.53946      -313.00046        42.800    22782081.82141
  93288839.34341      -244.06341        28.500  
  23050536.98046 120388695.31146     -3244.18846        42.100    23050540.37341
  94388114.78541     -2528.12541        25.300  
  20686970.81449 107968077.42149      -694.50049        47.800    20686971.94741
  84131116.54541      -541.31341        26.200  
  23643261.60045 123503514.76345     -3365.50045        40.100                  
                                                
 04 06 07 12 08 37.0000000  0  6G16G25G 6G30G14G22                              
  21865009.53248 114158721.17748      2219.37548        46.000    21865011.57841
  88954998.39341      1729.18841         6.300  
  21745486.50948 113530631.31148       394.37548        47.200    21745488.39441
  88465573.02941       307.12541        27.500  
  22782138.35346 119720961.65546      -313.50046        42.900    22782141.38241
  93289083.34041      -244.43841        22.000  
  23051154.33746 120391939.61146     -3244.87546        41.900    23051157.72841
  94390642.85041     -2528.62541        21.000  
  20687103.02848 107968772.21548      -695.25048        47.700    20687104.14141
  84131657.94441      -541.93841        30.600  
  23643902.05945 123506880.32545     -3365.81345        40.300                  
                                                
 04 06 07 12 08 38.0000000  0  6G16G25G 6G30G14G22                              
  21864587.36648 114156502.66148      2217.31348        45.900    21864589.56941
  88953269.70641      1727.62541        26.200  
  21745411.60348 113530237.67248       392.50048        47.200    21745413.30641
  88465266.31241       305.68841        28.100  
  22782198.21946 119721276.22246      -315.75046        42.900    22782202.17841
  93289328.45641      -246.18841        22.000  
  23051771.89746 120395184.90546     -3246.43846        42.200    23051776.65141
  94393171.68841     -2529.87541        26.900  
  20687235.51348 107969468.43948      -697.37548        47.700    20687236.51341
  84132200.45641      -543.56341        29.200  
  23644542.66045 123510246.80745     -3367.25045        40.700                  
                                                
 04 06 07 12 08 39.0000000  0  6G16G25G 6G30G14G22                              
  21864165.48648 114154285.66648      2216.87548        46.100    21864167.66041
  88951542.16041      1727.25041        21.600  
  21745336.90148 113529845.11548       392.56348        47.100    21745338.58841
  88464960.44341       305.75041        27.300  
  22782258.38646 119721592.40046      -316.56346        42.600    22782262.32241
  93289574.82741      -246.81341        20.900  
  23052389.69446 120398431.43846     -3246.56346        42.100    23052394.41541
  94395701.43441     -2529.93841        10.100  
  20687368.30948 107970166.26448      -698.06348        47.700    20687369.28541
  84132744.21441      -544.12541        28.900  
  23645183.50645 123513614.40445     -3367.62545        41.000                  
                                                
 04 06 07 12 08 40.0000000  0  6G16G25G 6G30G14G22                              
  21863743.67148 114152069.00648      2216.37548        46.000    21863745.98941
  88949814.89941      1726.87541        26.900  
  21745262.17648 113529452.47648       392.62548        47.200    21745264.23141
  88464654.49141       305.75041        24.600  
  22782318.62346 119721908.98846      -316.87546        42.800    22782322.36241
  93289821.51841      -247.06341        26.100  
  23053007.49146 120401677.93446     -3246.62546        42.100    23053009.24641
  94398231.16041     -2530.00041        10.200  
  20687501.16848 107970864.48048      -698.56348        47.700    20687501.74141
  84133288.27841      -544.50041        25.700  
  23645824.33045 123516981.91745     -3367.62545        41.100                  
                                                
 04 06 07 12 08 41.0000000  0  6G16G25G 6G30G14G22                              
  21863321.86548 114149852.36048      2216.50048        46.000    21863324.15541
  88948087.65041      1727.00041        24.600  
  21745187.37948 113529059.43448       393.06348        47.200    21745189.41441
  88464348.22441       306.12541        25.800  
  22782378.88546 119722225.68446      -316.62546        42.800    22782382.60141
  93290068.27341      -246.87541        26.000  
  23053625.22146 120404924.16946     -3246.18846        42.100    23053626.95241
  94400760.64641     -2529.68841        18.200  
  20687634.04548 107971562.78748      -698.25048        47.600    20687634.59941
  84133832.41941      -544.25041        26.400  
  23646465.07446 123520349.04446     -3366.93846        41.500                  
                                                
 04 06 07 12 08 42.0000000  0  6G16G25G 6G30G14G22                              
  21862900.07748 114147635.85648      2216.37548        45.900    21862903.47441
  88946360.52941      1726.87541        13.800  
  21745112.52248 113528666.09748       393.43848        47.200    21745114.40041
  88464041.73741       306.43841        25.000  
  22782439.20346 119722542.64446      -317.25046        42.700    22782442.52841
  93290315.28241      -247.37541         9.600  
  23054242.92846 120408170.21546     -3245.87546        42.200    23054246.13841
  94403290.04341     -2529.43841        21.600  
  20687766.96148 107972261.31448      -698.62548        47.700    20687767.76241
  84134376.72441      -544.56341        27.500  
  23647105.76746 123523715.89746     -3366.68846        41.800                  
                                                
 04 06 07 12 08 43.0000000  0  6G16G25G 6G30G14G22                              
  21862478.31948 114145419.42148      2216.43848        45.900    21862481.68041
  88944633.43741      1726.93841        22.300  
  21745037.59448 113528272.41948       394.18848        47.100    21745039.46241
  88463734.96241       307.00041        25.900  
  22782499.54546 119722859.75746      -317.06346        42.700    22782502.85841
  93290562.40841      -247.25041        24.300  
  23054860.57346 120411416.00246     -3245.62546        42.200    23054863.77041
  94405819.23841     -2529.25041        19.900  
  20687899.90448 107972959.97248      -698.75048        47.700    20687900.68441
  84134921.11641      -544.62541        28.300  
  23647746.39746 123527082.40746     -3366.37546        41.600                  
                                                
 04 06 07 12 08 44.0000000  0  6G16G25G 6G30G14G22                              
  21862056.54148 114143202.94748      2216.50048        46.000    21862059.28441
  88942906.31241      1727.00041        22.600  
  21744962.58748 113527878.25848       394.50048        47.100    21744963.94541
  88463427.83041       307.25041        23.400  
  22782559.89046 119723176.91146      -317.37546        42.900    22782561.78241
  93290809.52141      -247.50041        26.400  
  23055478.15546 120414661.40746     -3245.43846        42.200    23055482.41141
  94408348.13741     -2529.06341        25.600  
  20688032.85448 107973658.65948      -698.56348        47.700    20688033.25041
  84135465.55541      -544.50041        31.000  
  23648386.93446 123530448.44146     -3365.81346        41.600                  
                                                
 04 06 07 12 08 45.0000000  0  6G16G25G 6G30G14G22                              
  21861634.77148 114140986.54748      2216.12548        46.000    21861637.49841
  88941179.26341      1726.68841        27.000  
  21744887.51448 113527483.76848       394.50048        47.200    21744888.85641
  88463120.43141       307.25041        28.600  
  22782620.26446 119723494.23446      -317.56346        42.700    22782622.15141
  93291056.81141      -247.62541        16.200  
  23056095.68246 120417906.58446     -3245.00046        41.900    23056099.93141
  94410876.85441     -2528.75041        15.900  
  20688165.83148 107974357.50648      -699.25048        47.700    20688166.21441
  84136010.12041      -545.06341        27.900  
  23649027.39446 123533814.15346     -3365.75046        41.300                  
                                                
 04 06 07 12 08 46.0000000  0  6G16G25G 6G30G14G22                              
  21861213.06748 114138770.44448      2216.06348        46.000    21861215.66641
  88939452.41741      1726.62541        23.000  
  21744812.41548 113527089.14348       394.68848        47.100    21744813.82941
  88462812.94741       307.37541        23.600  
  22782680.71246 119723811.93846      -317.81346        42.800    22782683.65541
  93291304.37041      -247.81341        24.900  
  23056713.20746 120421151.73846     -3245.18846        42.200    23056715.77041
  94413405.56441     -2528.87541        23.600  
  20688298.88048 107975056.69748      -699.18848        47.700    20688299.73141
  84136554.94341      -545.00041        27.600  
  23649667.85046 123537179.76746     -3365.50046        41.400                  
                                                
 04 06 07 12 08 47.0000000  0  6G16G25G 6G30G14G22                              
  21860791.43048 114136554.69548      2215.50048        45.800    21860794.00041
  88937725.84841      1726.18841        24.500  
  21744737.29748 113526694.44048       394.75048        47.100    21744738.70141
  88462505.40341       307.43841        27.000  
  22782741.24846 119724130.09446      -318.25046        42.900    22782744.18141
  93291552.31141      -248.12541        26.100  
  23057330.75446 120424396.90846     -3245.31346        42.000    23057333.28341
  94415934.26941     -2529.00041        26.100  
  20688432.02148 107975756.32848      -699.87548        47.700    20688432.84341
  84137100.10141      -545.50041        26.700  
  23650308.27345 123540545.28545     -3365.62545        41.000                  
                                                
 04 06 07 12 08 48.0000000  0  6G16G25G 6G30G14G22                              
  21860369.87548 114134339.37448      2215.06348        45.800    21860371.80641
  88935999.63041      1725.87541        25.200  
  21744662.18348 113526299.73848       394.75048        47.100    21744664.12341
  88462197.84141       307.43841        24.200  
  22782801.89046 119724448.78646      -319.00046        42.700    22782805.16141
  93291800.61441      -248.75041         9.400  
  23057948.31246 120427642.19646     -3245.43846        42.300    23057951.24041
  94418463.03641     -2529.06341        10.000  
  20688565.25248 107976456.44948      -700.31348        47.700    20688565.53941
  84137645.64641      -545.87541        27.300  
  23650948.70845 123543910.83945     -3365.43845        41.000                  
                                                
 04 06 07 12 08 49.0000000  0  6G16G25G 6G30G14G22                              
  21859948.41948 114132124.59848      2214.62548        45.800    21859950.32541
  88934273.83141      1725.50041        26.800  
  21744587.09148 113525905.15848       394.62548        47.100    21744589.01541
  88461890.37341       307.31341        27.900  
  22782862.64346 119724768.09546      -319.43846        42.700    22782865.89941
  93292049.41541      -249.06341        25.700  
  23058565.90846 120430887.66746     -3245.50046        42.100    23058568.79641
  94420991.91141     -2529.12541        21.800  
  20688698.59748 107977157.19848      -700.93848        47.600    20688698.86741
  84138191.69141      -546.37541        29.700  
  23651589.17045 123547276.53945     -3366.00045        40.100    23651585.81541
  96849289.51251     -2623.00041        11.800  
 04 06 07 12 08 50.0000000  0  6G16G25G 6G30G14G22                              
  21859526.87048 114129909.36448      2216.18848        45.800    21859528.46541
  88932547.69141      1726.75041        24.800  
  21744511.83448 113525509.69448       396.87548        47.000    21744513.00141
  88461582.20041       309.06341        17.500  
  22782923.34146 119725087.03946      -317.87546        42.900    22782926.99441
  93292297.94241      -247.87541        20.400  
  23059183.34946 120434132.38546     -3243.43846        42.400    23059185.01641
  94423520.27541     -2527.50041        20.000  
  20688831.86848 107977857.54148      -699.18848        47.600    20688832.19341
  84138737.41241      -545.00041        27.000  
  23652229.47845 123550641.36045     -3363.50045        39.900    23652225.95941
  96851911.46641     -2621.06341        12.200  
 04 06 07 12 08 51.0000000  0  6G16G25G 6G30G14G22                              
  21859105.15348 114127693.23548      2216.18848        45.900    21859106.72641
  88930820.82841      1726.75041        23.000  
  21744436.33348 113525112.93448       396.93848        47.100    21744437.48241
  88461273.05941       309.12541        27.400  
  22782983.88746 119725405.21246      -318.50046        42.900    22782987.52241
  93292545.88441      -248.37541        23.000  
  23059800.56746 120437375.91846     -3243.18846        42.300    23059802.22041
  94426047.71641     -2527.31341        19.400  
  20688964.98748 107978557.09748      -699.62548        47.700    20688965.29141
  84139282.52841      -545.31341        30.200  
  23652869.53445 123554004.88545     -3363.37545        39.800    23652865.98741
  96854532.36541     -2621.00041        24.900  
 04 06 07 12 08 52.0000000  0  6G16G25G 6G30G14G22                              
  21858683.56348 114125477.70648      2215.18848        45.800    21858684.92541
  88929094.43741      1725.93841        23.600  
  21744360.85848 113524716.33548       396.37548        47.100    21744362.35941
  88460964.03941       308.68841        26.200  
  22783044.56646 119725724.05846      -319.43846        42.900    22783046.96241
  93292794.32741      -249.06341        24.800  
  23060417.83046 120440619.70446     -3243.93846        42.200    23060421.68441
  94428575.37541     -2527.93841        20.600  
  20689098.24548 107979257.30548      -700.68848        47.600    20689099.11241
  84139828.15141      -546.12541        31.800  
  23653509.62545 123557368.60245     -3363.87545        39.800    23653504.70241
  96857153.50641     -2621.37541        12.700  
 04 06 07 12 08 53.0000000  0  6G16G25G 6G30G14G22                              
  21858262.11148 114123262.95848      2214.56348        45.800    21858263.44741
  88927368.65141      1725.43841        28.500  
  21744285.45148 113524320.10348       396.12548        47.100    21744286.94041
  88460655.29341       308.50041        19.000  
  22783105.40246 119726043.77646      -320.12546        42.800    22783107.77941
  93293043.44641      -249.62541        16.800  
  23061035.19046 120443863.94646     -3244.25046        42.500    23061039.02241
  94431103.36041     -2528.12541        24.900  
  20689231.64748 107979958.37648      -701.37548        47.700    20689232.50241
  84140374.45641      -546.68841        25.000  
  23654149.75145 123560732.68245     -3364.31345        40.000                  
                                                
 04 06 07 12 08 54.0000000  0  6G16G25G 6G30G14G22                              
  21857840.93248 114121049.68248      2211.87548        45.700    21857843.06041
  88925644.04541      1723.37541        24.500  
  21744210.23848 113523924.92348       393.87548        47.000    21744211.82941
  88460347.36741       306.75041        29.100  
  22783166.54146 119726365.06546      -322.75046        42.900    22783169.05141
  93293293.80241      -251.68841        21.400  
  23061652.77346 120447109.33846     -3246.68846        42.100    23061656.81841
  94433632.29441     -2530.06341        22.000  
  20689365.34248 107980660.98148      -704.06348        47.700    20689366.45441
  84140921.93941      -548.81341        28.100  
  23654790.11045 123564097.83245     -3366.37545        40.200                  
                                                
 04 06 07 12 08 55.0000000  0  6G16G25G 6G30G14G22                              
  21857420.04148 114118837.92348      2211.68848        45.700    21857422.16441
  88923920.63441      1723.25041        13.300  
  21744135.24048 113523530.83048       394.37548        47.100    21744136.81341
  88460040.28741       307.12541        26.800  
  22783227.99146 119726687.95746      -322.68846        42.700    22783230.46841
  93293545.37941      -251.62541        17.500  
  23062270.58046 120450355.95446     -3246.56346        42.100    23062274.61441
  94436162.15341     -2529.93841        10.900  
  20689499.34048 107981365.17548      -704.00048        47.700    20689500.43341
  84141470.66041      -548.75041        30.000  
  23655430.65745 123567464.06245     -3365.81345        40.400    23655427.56341
  96865014.15351     -2622.87541        11.800  
 04 06 07 12 08 56.0000000  0  6G16G25G 6G30G14G22                              
  21856999.14948 114116626.13148      2211.75048        45.600    21857002.25241
  88922197.13541      1723.25041        23.200  
  21744060.15948 113523136.28848       394.75048        47.200    21744061.48741
  88459732.85841       307.43841        25.800  
  22783289.45446 119727010.93546      -322.87546        43.000    22783291.01141
  93293797.07641      -251.75041        20.100  
  23062888.32646 120453602.16946     -3246.12546        42.100    23062892.96741
  94438691.65441     -2529.62541        23.100  
  20689633.35148 107982069.41948      -704.31348        47.400    20689634.66641
  84142019.42341      -549.00041        27.800  
  23656071.14445 123570829.85945     -3365.68845        40.700    23656069.41541
  96867636.86341     -2622.75041        20.600  
 04 06 07 12 08 57.0000000  0  6G16G25G 6G30G14G22                              
  21856578.25048 114114414.29448      2211.81348        45.700    21856581.33041
  88920473.62441      1723.31341        26.000  
  21743984.98548 113522741.27848       395.06348        47.200    21743986.29841
  88459425.05841       307.68841        22.000  
  22783350.93046 119727333.97146      -323.18846        42.700    22783352.46341
  93294048.79041      -252.00041        25.300  
  23063505.99346 120456848.03546     -3245.87546        42.100    23063510.62041
  94441220.92841     -2529.43841        22.300  
  20689767.36448 107982773.67748      -704.18848        47.600    20689768.65741
  84142568.18741      -548.87541        26.500  
  23656711.53745 123574195.20045     -3365.18845        40.800                  
                                                
 04 06 07 12 08 58.0000000  0  6G16G25G 6G30G14G22                              
  21856157.46947 114112203.13247      2210.68847        45.500    21856159.96941
  88918750.64041      1722.43841        24.800  
  21743909.85648 113522346.52248       394.56348        47.100    21743911.13741
  88459117.45441       307.31341        25.600  
  22783412.53846 119727657.75446      -324.25046        42.900    22783414.40441
  93294301.09841      -252.81341        27.400  
  23064123.73646 120460094.25146     -3246.62546        42.300    23064129.54041
  94443750.41241     -2530.00041        24.500  
  20689901.52248 107983478.70048      -705.62548        47.500    20689902.32641
  84143117.55441      -550.00041        29.900  
  23657351.98845 123577560.78345     -3365.56345        41.000                  
                                                
 04 06 07 12 08 59.0000000  0  6G16G25G 6G30G14G22                              
  21855736.97448 114109993.42648      2208.87548        45.600    21855739.45241
  88917028.78841      1721.06341        25.100  
  21743834.93148 113521952.80648       392.93848        47.100    21743836.19641
  88458810.66941       306.00041        27.800  
  22783474.44346 119727983.11346      -326.37546        43.200    22783476.31141
  93294554.67741      -254.50041        25.100  
  23064741.68646 120463341.59946     -3248.12546        42.300    23064747.45641
  94446280.77141     -2531.18841         9.900  
  20690035.96548 107984185.23048      -707.68848        47.600    20690036.75141
  84143668.09641      -551.62541        30.700  
  23657992.62745 123580927.43145     -3367.43845        40.800                  
                                                
 04 06 07 12 09  0.0000000  0  6G16G25G 6G30G14G22                              
  21855316.54648 114107784.08648      2210.25048        45.600    21855318.11241
  88915307.20841      1722.12541        27.600  
  21743759.99848 113521559.01448       394.93848        47.100    21743761.53041
  88458503.80741       307.56341        26.100  
  22783536.42846 119728308.89646      -324.87546        43.000    22783540.37141
  93294808.55341      -253.31341        22.900  
  23065359.65146 120466588.98046     -3246.12546        42.200    23065364.63141
  94448811.30341     -2529.62541        16.500  
  20690170.49848 107984892.20048      -706.00048        47.600    20690171.85041
  84144218.98841      -550.31341        28.000  
  23658633.26945 123584294.01445     -3365.50045        40.800    23658627.79741
  96878128.35751     -2622.62541        25.200  
 04 06 07 12 09  1.0000000  0  6G16G25G 6G30G14G22                              
  21854895.85748 114105573.32848      2211.06348        45.700    21854897.40141
  88913584.55441      1722.75041        25.800  
  21743684.69948 113521163.38048       396.31348        47.100    21743686.22041
  88458195.51941       308.62541        28.400  
  22783598.17746 119728633.36746      -324.25046        42.800    22783602.10841
  93295061.44141      -252.81341         9.200  
  23065977.28146 120469834.62446     -3245.06346        42.200    23065982.21741
  94451340.30641     -2528.81341        19.000  
  20690304.77548 107985597.83048      -705.31348        47.600    20690306.10141
  84144768.83841      -549.75041        28.800  
  23659273.55945 123587658.77645     -3364.25045        40.900    23659268.07041
  96880750.25741     -2621.68841        20.000  
 04 06 07 12 09  2.0000000  0  6G16G25G 6G30G14G22                              
  21854475.15948 114103362.54448      2210.43848        45.600    21854478.15141
  88911861.88341      1722.25041        23.700  
  21743609.33148 113520767.30748       395.87548        47.000    21743610.69541
  88457886.88841       308.31341        29.500  
  22783659.93546 119728957.90446      -324.93846        42.800    22783664.45841
  93295314.31841      -253.37541        21.600  
  23066594.84646 120473079.89946     -3245.50046        42.300    23066598.41341
  94453869.08241     -2529.12541        20.200  
  20690439.05948 107986303.48848      -705.87548        47.600    20690440.40741
  84145318.70041      -550.18841        28.800  
  23659913.76146 123591023.07946     -3364.56346        41.200                  
                                                
 04 06 07 12 09  3.0000000  0  6G16G25G 6G30G14G22                              
  21854054.68948 114101152.97048      2208.68848        45.600    21854057.66241
  88910140.14941      1720.87541        27.400  
  21743534.10148 113520371.99948       394.81348        47.100    21743535.44941
  88457578.85441       307.50041        25.900  
  22783721.93146 119729283.72046      -326.56346        43.000    22783726.42741
  93295568.18141      -254.62541        20.200  
  23067212.56546 120476326.07446     -3246.87546        42.400    23067216.11641
  94456398.57841     -2530.18841        26.000  
  20690573.58648 107987010.43148      -707.93848        47.600    20690574.90741
  84145869.55241      -551.81341        29.100  
  23660554.10845 123594388.16745     -3365.81345        41.100                  
                                                
 04 06 07 12 09  4.0000000  0  6G16G25G 6G30G14G22                              
  21853634.57147 114098945.30647      2206.56347        45.500    21853636.32841
  88908419.88941      1719.25041        25.500  
  21743459.15748 113519978.20948       392.81348        47.000    21743460.27041
  88457272.01441       305.93841        30.000  
  22783784.31046 119729611.57146      -329.12546        43.000    22783786.83841
  93295823.59341      -256.62541        24.700  
  23067830.56946 120479573.83446     -3249.12546        42.300    23067834.12941
  94458929.26441     -2531.93841         9.900  
  20690708.49248 107987719.38248      -710.37548        47.700    20690708.95741
  84146421.97341      -553.68841        27.700  
  23661194.75145 123597754.78645     -3367.68845        40.800                  
                                                
 04 06 07 12 09  5.0000000  0  6G16G25G 6G30G14G22                              
  21853214.75848 114096739.22248      2205.87548        45.600    21853216.49541
  88906700.84641      1718.68841        18.500  
  21743384.43048 113519585.55148       392.75048        47.100    21743385.53141
  88456966.05441       305.87541        28.300  
  22783847.00646 119729941.08446      -329.75046        43.000    22783849.51341
  93296080.34441      -257.12541         9.200  
  23068448.83546 120482822.82446     -3249.06346        42.300    23068452.36941
  94461460.95141     -2531.87541        24.800  
  20690843.70748 107988429.94748      -710.62548        47.600    20690844.15541
  84146975.66641      -553.87541        28.800  
  23661835.62045 123601122.54545     -3367.81345        40.800                  
                                                
 04 06 07 12 09  6.0000000  0  6G16G25G 6G30G14G22                              
  21852794.99548 114094533.42748      2205.62548        45.600    21852797.11241
  88904982.04341      1718.50041        28.000  
  21743309.68148 113519192.77548       392.68848        47.000    21743311.08641
  88456659.99641       305.81341        25.100  
  22783909.77546 119730270.96546      -330.06346        42.800    22783912.42041
  93296337.41141      -257.37541        22.700  
  23069067.08146 120486071.80646     -3249.18846        42.200    23069069.49541
  94463992.56941     -2532.00041        24.400  
  20690979.00548 107989140.89948      -711.31348        47.700    20690979.58441
  84147529.65441      -554.43841        28.600  
  23662476.45445 123604490.17745     -3367.56345        40.500                  
                                                
 04 06 07 12 09  7.0000000  0  6G16G25G 6G30G14G22                              
  21852375.29548 114092327.85248      2205.62548        45.600    21852377.38641
  88903263.42141      1718.50041        25.700  
  21743234.89448 113518799.79648       393.06348        47.100    21743236.28641
  88456353.79641       306.12541        22.000  
  22783972.61546 119730601.18446      -330.18846        42.900    22783975.23741
  93296594.73541      -257.43841        25.000  
  23069685.30946 120489320.66446     -3248.75046        42.200    23069687.72741
  94466524.21041     -2531.68841        25.000  
  20691114.34248 107989852.12048      -711.18848        47.600    20691114.90441
  84148083.86841      -554.31341        30.500  
  23663117.25245 123607857.65145     -3367.62545        40.100                  
                                                
 04 06 07 12 09  8.0000000  0  6G16G25G 6G30G14G22                              
  21851955.46047 114090121.64347      2207.06347        45.400    21851958.05841
  88901544.30541      1719.62541        24.600  
  21743159.89848 113518405.74348       395.25048        47.100    21743161.21741
  88456046.74041       307.81341        28.200  
  22784035.34046 119730930.82646      -328.62546        43.000    22784037.86141
  93296851.58941      -256.25041        21.800  
  23070303.37346 120492568.56446     -3246.75046        42.400    23070308.69741
  94469055.08241     -2530.12541        20.000  
  20691249.57748 107990562.78448      -709.75048        47.700    20691250.53641
  84148637.63941      -553.18841        28.900  
  23663757.84045 123611224.03745     -3365.25045        39.700    23663759.44741
  96899150.86251     -2622.37541        12.600  
 04 06 07 12 09  9.0000000  0  6G16G25G 6G30G14G22                              
  21851535.32447 114087913.85147      2208.37547        45.300    21851537.91041
  88899823.95041      1720.62541        16.300  
  21743084.52748 113518009.69648       396.87548        47.100    21743085.82541
  88455738.12541       309.06341        25.000  
  22784097.79946 119731259.02246      -327.68846        43.000    22784100.29641
  93297107.33341      -255.50041        19.900  
  23070921.06246 120495814.56146     -3245.37546        42.300    23070926.34041
  94471584.31141     -2529.00041        23.800  
  20691384.52348 107991271.93548      -708.62548        47.600    20691385.45441
  84149190.22441      -552.31341        28.000  
  23664398.07345 123614588.47445     -3363.93845        39.600    23664399.67941
  96901772.59641     -2621.37541        22.500  
 04 06 07 12 09 10.0000000  0  6G16G25G 6G30G14G22                              
  21851115.13647 114085705.79347      2207.87547        45.400    21851117.71041
  88898103.38441      1720.25041        22.600  
  21743009.02248 113517612.96848       396.68848        47.000    21743009.94441
  88455428.99241       308.93841        27.300  
  22784160.22046 119731587.01146      -328.25046        42.700    22784163.50341
  93297362.90541      -255.93841        17.300  
  23071538.63646 120499059.95546     -3245.56346        42.200    23071540.96641
  94474113.18041     -2529.18841        28.500  
  20691519.43748 107991980.90148      -709.31348        47.700    20691520.40341
  84149742.67141      -552.87541        29.200  
  23665038.16745 123617952.20245     -3364.00045        39.400    23665039.98941
  96904393.73341     -2621.37541        24.700  
 04 06 07 12 09 11.0000000  0  6G16G25G 6G30G14G22                              
  21850695.08047 114083498.44447      2206.87547        45.300    21850697.64241
  88896383.36441      1719.50041        23.000  
  21742933.56848 113517216.50448       396.31348        47.200    21742934.47841
  88455120.05941       308.62541        27.300  
  22784222.79546 119731915.81646      -329.43846        43.000    22784226.06141
  93297619.15241      -256.87541         9.300  
  23072156.27846 120502305.74946     -3246.18846        42.300                  
                                                
  20691654.48848 107992690.62848      -710.31348        47.700    20691655.43641
  84150295.70541      -553.62541        27.700  
  23665678.30345 123621316.20345     -3364.25045        39.200    23665680.12841
  96907015.08141     -2621.62541        25.800  
 04 06 07 12 09 12.0000000  0  6G16G25G 6G30G14G22                              
  21850275.18347 114081291.88847      2206.06347        45.300    21850277.01941
  88894663.95941      1718.87541        26.700  
  21742858.19448 113516820.41248       395.87548        47.000    21742859.11841
  88454811.41341       308.31341        26.400  
  22784285.53146 119732245.48446      -330.18846        43.000    22784288.43741
  93297875.98141      -257.43841        16.600  
  23072774.00646 120505552.00146     -3246.56346        42.200                  
                                                
  20691789.70448 107993401.21848      -711.06348        47.700    20691790.87141
  84150849.41041      -554.25041        29.800  
  23666318.50945 123624680.58845     -3364.75045        39.300    23666322.51141
  96909636.64541     -2622.00041        24.300  
 04 06 07 12 09 13.0000000  0  6G16G25G 6G30G14G22                              
  21849855.31647 114079085.52547      2206.75047        45.300    21849857.14441
  88892944.73041      1719.37541        21.300  
  21742782.77148 113516424.10648       396.68848        47.100    21742783.68041
  88454502.60941       308.93841        24.300  
  22784348.31846 119732575.45346      -329.62546        43.000    22784351.20441
  93298133.09741      -257.00041        24.400  
  23073391.72646 120508798.12146     -3245.62546        42.300    23073394.47441
  94481693.32051     -2529.25041        17.800  
  20691924.97748 107994112.08448      -710.56348        47.700    20691926.12241
  84151403.33141      -553.87541        30.900  
  23666958.68045 123628044.76545     -3363.81345        39.800    23666962.66241
  96912258.03341     -2621.31341        12.600  
 04 06 07 12 09 14.0000000  0  6G16G25G 6G30G14G22                              
  21849435.55947 114076879.72647      2204.50047        45.400    21849438.06441
  88891225.94541      1717.62541        19.000  
  21742707.37948 113516027.90948       395.06348        47.100    21742708.94841
  88454193.90241       307.68841        24.200  
  22784411.24246 119732906.06446      -331.81346        42.900    22784414.54641
  93298390.75141      -258.75041        15.400  
  23074009.49146 120512044.46746     -3247.43846        42.300    23074011.77041
  94484223.00341     -2530.62541        23.800  
  20692060.36548 107994823.55848      -712.75048        47.700    20692061.54041
  84151957.71541      -555.56341        29.800  
  23667598.88845 123631409.06045     -3365.37545        39.900    23667599.92841
  96914879.62241     -2622.50041        25.900  
 04 06 07 12 09 15.0000000  0  6G16G25G 6G30G14G22                              
  21849016.14347 114074675.74047      2203.43847        45.200    21849018.63341
  88889508.53341      1716.81341        21.500  
  21742632.24748 113515633.11748       394.56348        47.100    21742633.80241
  88453886.28841       307.31341        23.700  
  22784474.52346 119733238.60246      -333.18846        43.000    22784477.80741
  93298649.89041      -259.81341        20.400  
  23074627.52946 120515292.30646     -3248.06346        42.400    23074629.79841
  94486753.81441     -2531.12541         9.900  
  20692196.11748 107995536.94548      -713.87548        47.700    20692197.27141
  84152513.60841      -556.43841        30.100  
  23668239.35445 123634774.78045     -3365.75045        40.200    23668240.36341
  96917502.19041     -2622.81341        24.500  
 04 06 07 12 09 16.0000000  0  6G16G25G 6G30G14G22                              
  21848596.89147 114072472.56447      2202.62547        45.000    21848598.71041
  88887791.78841      1716.18841        16.000  
  21742557.18648 113515238.70348       394.18848        47.100    21742559.02341
  88453578.96141       307.00041        28.600  
  22784537.97346 119733572.02446      -333.81346        43.000    22784540.88841
  93298909.70741      -260.25041        22.500  
  23075245.66746 120518540.63946     -3248.62546        42.600    23075248.57141
  94489284.99241     -2531.56341         9.900  
  20692332.03848 107996251.20348      -714.81348        47.700    20692333.47641
  84153070.18941      -557.18841        29.700  
  23668879.86945 123638140.89045     -3366.43845        40.100    23668878.66641
  96920125.04341     -2623.37541        25.800  
 04 06 07 12 09 17.0000000  0  6G16G25G 6G30G14G22                              
  21848177.87047 114070270.68347      2201.43847        45.000    21848179.67941
  88886076.02141      1715.25041        18.800  
  21742482.29348 113514845.17148       393.31348        47.100    21742484.11741
  88453272.32041       306.31341        28.500  
  22784601.67746 119733906.83946      -335.00046        43.100    22784604.58541
  93299170.62741      -261.18841        26.100  
  23075863.98346 120521789.93846     -3249.93846        42.400    23075866.87141
  94491816.91941     -2532.56341         9.800  
  20692468.21948 107996966.82248      -715.93848        47.700    20692469.63041
  84153627.79541      -558.06341        27.300  
  23669520.56145 123641507.88445     -3367.25045        40.300    23669519.35041
  96922748.64041     -2624.00041        11.800  
 04 06 07 12 09 18.0000000  0  6G16G25G 6G30G14G22                              
  21847758.94647 114068069.32447      2201.25047        45.100    21847760.86541
  88884360.69041      1715.12541        27.100  
  21742407.42148 113514451.74048       393.62548        47.000    21742409.38141
  88452965.73241       306.56341        29.500  
  22784665.51246 119734242.29346      -335.56346        42.900    22784669.83141
  93299432.01941      -261.62541        15.500  
  23076482.34646 120525039.43446     -3249.50046        42.600                  
                                                
  20692604.52448 107997683.06548      -716.56348        47.600    20692605.74241
  84154185.91241      -558.50041        28.000  
  23670161.30345 123644874.96045     -3367.00045        40.500    23670159.49941
  96925372.20041     -2623.87541        23.800  
 04 06 07 12 09 19.0000000  0  6G16G25G 6G30G14G22                              
  21847340.09547 114065868.35547      2201.00047        45.400    21847342.01041
  88882645.63441      1714.87541        25.800  
  21742332.53548 113514058.27248       393.75048        47.000    21742334.48641
  88452659.14041       306.62541        27.100  
  22784729.42546 119734578.20246      -336.00046        43.000    22784733.73441
  93299693.77341      -262.00041        25.600  
  23077100.70846 120528288.97746     -3249.31346        42.500                  
                                                
  20692740.91048 107998399.73648      -716.75048        47.700    20692742.09841
  84154744.35541      -558.68841        29.600  
  23670802.01045 123648242.02645     -3367.00045        40.300                  
                                                
 04 06 07 12 09 20.0000000  0  7G20G16G25G 6G30G14G22                           
  24763200.24242 130131472.55152      2234.62542        34.000                  
                                                
  21846921.18447 114063667.03347      2202.12547        45.300    21846923.34741
  88880930.33541      1715.75041        26.100  
  21742257.51048 113513664.01948       395.18848        47.000    21742260.30241
  88452351.93541       307.75041        24.100  
  22784793.28646 119734913.85846      -335.12546        43.000    22784798.05041
  93299955.34041      -261.31341        29.900  
  23077718.94646 120531537.86546     -3248.06346        42.300                  
                                                
  20692877.24348 107999116.13148      -715.81348        47.700    20692878.60441
  84155302.59341      -557.93841        29.600  
  23671442.59845 123651608.33645     -3365.43845        40.700                  
                                                
 04 06 07 12 09 21.0000000  0  7G20G16G25G 6G30G14G22                           
  24762773.67542 130129238.85642      2231.56342        33.600                  
                                                
  21846502.39247 114061466.38947      2198.93847        45.100    21846504.55141
  88879215.54741      1713.31341        28.600  
  21742182.53648 113513270.02548       392.50048        47.100    21742185.30841
  88452044.94341       305.68841        29.600  
  22784857.31646 119735250.28446      -338.25046        43.100    22784862.03941
  93300217.47141      -263.75041        21.500  
  23078337.26146 120534787.10346     -3250.81346        42.400                  
                                                
  20693013.71448 107999833.27848      -719.06348        47.700    20693015.05041
  84155861.41741      -560.50041        30.800  
  23672083.23045 123654974.86545     -3367.93845        40.600                  
                                                
 04 06 07 12 09 22.0000000  0  7G20G16G25G 6G30G14G22                           
  24762347.33342 130127006.26742      2233.50042        33.500                  
                                                
  21846083.81447 114059266.87647      2201.00047        45.100    21846085.86941
  88877501.64041      1714.87541        19.100  
  21742107.68848 113512876.73448       395.06348        47.000    21742109.90741
  88451738.47441       307.68841        23.300  
  22784921.57146 119735587.94246      -336.25046        42.800    22784924.28641
  93300480.54541      -262.18841        31.000  
  23078955.73246 120538037.11946     -3248.50046        42.700                  
                                                
  20693150.40848 108000551.61348      -716.87548        47.700    20693151.75541
  84156421.16541      -558.75041        28.600  
  23672724.00945 123658342.15245     -3365.87545        40.400    23672723.81241
  96935844.35451     -2622.93841        22.300  
 04 06 07 12 09 23.0000000  0  7G20G16G25G 6G30G14G22                           
  24761923.76042 130124772.12442      2233.50042        34.300                  
                                                
  21845664.93147 114057065.72147      2201.18847        45.000    21845666.98641
  88875786.46941      1715.06341        27.000  
  21742032.45848 113512481.37648       395.62548        47.100    21742034.64641
  88451430.37541       308.12541        28.700  
  22784985.51846 119735924.03646      -336.25046        43.100    22784988.21541
  93300742.44441      -262.18841        21.700  
  23079573.82146 120541285.17946     -3247.93846        42.700                  
                                                
  20693286.81648 108001268.41048      -717.06348        47.700    20693288.13341
  84156979.70541      -558.93841        29.800  
  23673364.39645 123661707.37645     -3365.12545        40.100    23673364.16941
  96938466.60341     -2622.31341        18.000  
 04 06 07 12 09 24.0000000  0  7G20G16G25G 6G30G14G22                           
  24761499.38242 130122538.81742      2232.18842        34.100                  
                                                
  21845246.21447 114054865.42647      2199.50047        45.000    21845248.68841
  88874071.98241      1713.75041        27.900  
  21741957.30348 113512086.46148       394.25048        47.200    21741958.55041
  88451122.64641       307.06341        26.100  
  22785049.65046 119736261.10246      -337.87546        43.100    22785052.96541
  93301005.09041      -263.43841        23.100  
  23080192.02546 120544533.77346     -3249.18846        42.300                  
                                                
  20693423.38548 108001986.10248      -718.56348        47.600    20693424.25041
  84157538.92641      -560.06341        28.200  
  23674004.84045 123665073.00445     -3366.06345        39.900    23674001.67541
  96941089.17441     -2623.06341        23.400  
 04 06 07 12 09 25.0000000  0  7G20G16G25G 6G30G14G22                           
  24761074.44142 130120306.40742      2232.37542        34.000                  
                                                
  21844827.68247 114052666.02547      2199.43847        45.000    21844830.13541
  88872358.17041      1713.68841        27.500  
  21741882.23548 113511691.99848       394.81348        47.100    21741883.46741
  88450815.28841       307.50041        19.900  
  22785113.97946 119736599.13146      -338.06346        43.000    22785117.27541
  93301268.51741      -263.56341        24.200  
  23080810.32546 120547782.89746     -3249.06346        42.400                  
                                                
  20693560.13948 108002704.77348      -718.68848        47.700    20693560.98441
  84158098.91641      -560.18841        27.700  
  23674645.39445 123668439.15345     -3365.87545        39.700    23674642.22441
  96943712.21341     -2622.93841        16.200  
 04 06 07 12 09 26.0000000  0  7G20G16G25G 6G30G14G22                           
  24760649.57042 130118074.18742      2231.75042        34.200                  
                                                
  21844409.16147 114050466.74347      2199.43847        45.000    21844411.92941
  88870644.43441      1713.68841        29.300  
  21741807.11648 113511297.25448       395.00048        47.100    21741808.15541
  88450507.68541       307.62541        28.700  
  22785178.34646 119736937.41346      -338.68846        43.100    22785181.53341
  93301532.09641      -264.06341        23.200  
  23081428.58546 120551031.87046     -3248.93846        42.600                  
                                                
  20693696.94748 108003423.65248      -718.87548        47.700    20693697.32041
  84158659.07841      -560.31341        28.400  
  23675285.87545 123671805.02745     -3365.87545        39.600    23675285.62741
  96946334.93641     -2622.93841        25.400  
 04 06 07 12 09 27.0000000  0  7G20G16G25G 6G30G14G22                           
  24760224.81642 130115842.28942      2231.68842        33.500                  
                                                
  21843990.70647 114048267.87847      2198.62547        45.000    21843993.47641
  88868931.04041      1713.06341        28.200  
  21741731.98948 113510902.48448       394.62548        47.100    21741733.01541
  88450200.08641       307.31341        22.800  
  22785242.80946 119737276.15846      -339.06346        43.100    22785245.96641
  93301796.04141      -264.37541        29.100  
  23082046.84246 120554280.87146     -3249.06346        42.600                  
                                                
  20693833.83948 108004142.99548      -719.68848        47.700    20693834.18841
  84159219.62241      -560.93841        27.800  
  23675926.33245 123675170.85245     -3365.81345        39.300    23675926.07941
  96948957.58541     -2622.87541        12.600  
 04 06 07 12 09 28.0000000  0  7G20G16G25G 6G30G14G22                           
  24759800.21843 130113611.02843      2231.06343        34.700                  
                                                
  21843572.36447 114046069.56847      2197.81347        45.200    21843575.19941
  88867218.04641      1712.43841        26.800  
  21741656.89048 113510507.84948       394.37548        47.100    21741658.14641
  88449892.58741       307.12541        26.700  
  22785307.39446 119737615.55546      -339.68846        43.100    22785310.25341
  93302060.50641      -264.87541        27.000  
  23082665.16846 120557530.12946     -3249.56346        42.700                  
                                                
  20693970.84849 108004862.96449      -720.18849        47.800    20693971.71941
  84159780.63741      -561.37541        29.300  
  23676566.85445 123678536.85545     -3365.81345        39.300    23676566.53541
  96951580.42141     -2622.87541        26.700  
 04 06 07 12 09 29.0000000  0  6G16G25G 6G30G14G22                              
  21843154.16147 114043871.93347      2197.31347        45.300    21843156.97641
  88865505.59141      1712.00041        25.900  
  21741581.83348 113510113.46848       394.31348        47.200    21741583.07841
  88449585.29141       307.06341        29.300  
  22785372.11946 119737955.74446      -340.56346        43.200    22785374.96841
  93302325.60441      -265.56341        25.300  
  23083283.54746 120560779.72946     -3249.56346        42.600    23083287.36741
  94522205.71051     -2532.25041        26.900  
  20694107.99949 108005583.68649      -720.87549        47.800    20694108.84841
  84160342.23441      -561.87541        29.600  
  23677207.38845 123681903.08245     -3366.31345        39.400    23677207.08541
  96954203.45741     -2623.25041        22.900  
 04 06 07 12 09 30.0000000  0  6G16G25G 6G30G14G22                              
  21842736.14747 114041675.30347      2195.81347        45.100    21842738.80541
  88863793.91341      1710.87541        18.300  
  21741506.89448 113509719.66548       393.37548        47.100    21741508.51041
  88449278.43241       306.37541        27.900  
  22785437.06146 119738297.00646      -342.06346        43.200    22785439.93841
  93302591.48641      -266.68841         9.000  
  23083902.04646 120564030.00946     -3250.93846        42.600    23083905.85441
  94524738.40741     -2533.31341        18.200  
  20694245.35048 108006305.49748      -722.68848        47.700    20694246.37641
  84160904.69241      -563.31341        30.800  
  23677848.07145 123685269.92445     -3367.56345        39.900    23677846.86241
  96956827.01341     -2624.25041        12.500  
 04 06 07 12 09 31.0000000  0  6G16G25G 6G30G14G22                              
  21842318.34047 114039479.81347      2195.06347        45.200    21842320.99141
  88862083.13041      1710.25041        24.900  
  21741432.09448 113509326.58048       392.87548        47.100    21741433.68841
  88448972.13941       306.00041        25.700  
  22785502.23646 119738639.51246      -342.81346        43.100    22785505.09741
  93302858.39841      -267.31341        15.300  
  23084520.70746 120567281.09846     -3251.31346        42.500    23084523.13341
  94527271.68741     -2533.56341         9.800  
  20694382.92648 108007028.50048      -723.25048        47.700    20694383.93641
  84161468.07741      -563.75041        27.600  
  23678488.87245 123688637.45245     -3367.81345        39.800    23678487.65441
  96959451.03941     -2624.43841        24.600  
 04 06 07 12 09 32.0000000  0  7G20G16G25G 6G30G14G22                           
  24758102.80143 130104703.55153      2227.93843        34.900                  
                                                
  21841900.60647 114037284.70247      2194.93847        45.200    21841902.81541
  88860372.64541      1710.18841        27.100  
  21741357.27648 113508933.44848       393.31348        47.100    21741359.63941
  88448665.82141       306.31341        29.000  
  22785567.50846 119738982.50046      -343.37546        43.200    22785571.03241
  93303125.68741      -267.75041        20.700  
  23085139.38546 120570532.23646     -3251.31346        42.200    23085141.78341
  94529805.06241     -2533.56341        23.200  
  20694520.59549 108007751.96649      -723.56349        47.800    20694521.50341
  84162031.81341      -564.00041        30.700  
  23679129.69145 123692004.97445     -3367.81345        40.000    23679125.53541
  96962075.15541     -2624.43841        12.200  
 04 06 07 12 09 33.0000000  0  7G20G16G25G 6G30G14G22                           
  24757678.64442 130102475.81142      2227.81342        34.300                  
                                                
  21841482.93547 114035089.82347      2194.75047        45.200    21841485.12541
  88858662.36541      1710.00041        23.900  
  21741282.42448 113508540.14548       393.37548        47.100    21741284.77141
  88448359.34341       306.37541        25.800  
  22785632.84246 119739325.80346      -343.75046        43.100    22785636.34041
  93303393.20841      -268.00041        27.500  
  23085758.04946 120573783.27746     -3251.12546        42.300    23085761.91941
  94532338.31341     -2533.50041        27.500  
  20694658.33049 108008475.73949      -724.00049        47.800    20694659.21141
  84162595.79141      -564.31341        29.500  
  23679770.44945 123695372.29945     -3367.12545        40.000                  
                                                
 04 06 07 12 09 34.0000000  0  7G20G16G25G 6G30G14G22                           
  24757255.48643 130100248.33443      2227.68843        34.600                  
                                                
  21841065.30247 114032895.23847      2194.50047        45.200    21841067.10741
  88856952.31541      1709.81341        19.700  
  21741207.54948 113508146.69848       393.43848        47.100    21741209.27441
  88448052.76041       306.43841        26.800  
  22785698.24047 119739669.47147      -343.75047        43.400    22785701.36041
  93303661.01041      -268.00041        21.200  
  23086376.71046 120577034.29346     -3251.12546        42.500    23086380.55341
  94534871.59941     -2533.50041        19.800  
  20694796.12448 108009199.86448      -724.18848        47.700    20694796.88641
  84163160.04241      -564.43841        26.700  
  23680411.19745 123698739.50745     -3367.31345        40.100                  
                                                
 04 06 07 12 09 35.0000000  0  7G20G16G25G 6G30G14G22                           
  24756830.45143 130098022.03743      2224.75043        35.100                  
                                                
  21840647.88047 114030701.74047      2192.43847        45.300    21840649.67341
  88855243.08941      1708.25041        24.900  
  21741132.80348 113507753.92348       391.87548        47.000    21741134.51441
  88447746.70941       305.18841        25.200  
  22785763.87546 119740014.36246      -346.06346        43.200    22785766.96841
  93303929.75441      -269.81341        25.000  
  23086995.51946 120580286.06046     -3252.81346        42.400    23086998.83041
  94537405.39041     -2534.81341        27.700  
  20694934.14348 108009925.16348      -726.43848        47.700    20694934.88341
  84163725.21841      -566.25041        26.300  
  23681052.06845 123702107.38545     -3369.12545        39.800                  
                                                
 04 06 07 12 09 36.0000000  0  7G20G16G25G 6G30G14G22                           
  24756407.57543 130095796.31743      2226.43843        35.200                  
                                                
  21840230.56347 114028508.85347      2193.75047        45.200    21840232.34141
  88853534.36041      1709.25041        27.200  
  21741058.09048 113507361.33748       393.43848        47.100    21741059.92541
  88447440.79541       306.43841        28.400  
  22785829.63846 119740359.92146      -345.00046        43.200    22785831.66241
  93304199.02241      -269.00041        18.200  
  23087614.35346 120583538.10046     -3250.93846        42.400    23087617.64741
  94539939.42041     -2533.37541        18.500  
  20695072.29248 108010651.14548      -725.25048        47.700    20695073.09041
  84164290.92541      -565.31341        28.100  
  23681692.94545 123705475.43245     -3367.12545        39.700                  
                                                
 04 06 07 12 09 37.0000000  0  7G20G16G25G 6G30G14G22                           
  24755983.57743 130093569.68943      2227.18843        34.700                  
                                                
  21839813.09247 114026315.10447      2193.62547        45.300    21839814.86541
  88851824.95441      1709.12541        20.700  
  21740983.13148 113506967.44148       393.93848        47.100    21740984.94341
  88447133.86141       306.81341        24.800  
  22785895.25646 119740704.71046      -344.93846        43.100    22785897.24141
  93304467.66041      -268.93841        25.800  
  23088232.96446 120586788.96646     -3250.87546        42.300    23088235.77741
  94542472.51341     -2533.31341        17.300  
  20695210.28248 108011376.31048      -725.12548        47.700    20695211.05941
  84164855.97641      -565.18841        29.500  
  23682333.60145 123708842.19545     -3367.06345        39.400                  
                                                
 04 06 07 12 09 38.0000000  0  7G20G16G25G 6G30G14G22                           
  24755560.63143 130091344.02443      2224.31343        35.100                  
                                                
  21839395.77647 114024122.18747      2192.06347        45.000    21839398.19441
  88850116.19541      1707.93841        23.000  
  21740908.26348 113506573.97848       392.75048        47.100    21740909.68641
  88446827.25441       305.87541        25.400  
  22785961.04746 119741050.44546      -346.62546        43.200    22785962.07241
  93304737.09741      -270.25041        25.300  
  23088851.67646 120590040.33946     -3252.06346        42.200    23088854.44541
  94545005.94641     -2534.31341        20.300  
  20695348.44548 108012102.40548      -726.93848        47.700    20695349.49641
  84165421.76541      -566.62541        27.600  
  23682974.35645 123712209.40945     -3368.31345        39.400                  
                                                
 04 06 07 12 09 39.0000000  0  7G20G16G25G 6G30G14G22                           
  24755137.61642 130089119.70042      2224.56342        34.300                  
                                                
  21838978.73747 114021930.68847      2191.31347        45.100    21838981.14341
  88848408.52541      1707.37541        22.200  
  21740833.57048 113506181.49048       392.62548        47.000    21740834.97741
  88446521.42741       305.75041        26.600  
  22786027.13446 119741397.69146      -347.62546        43.200    22786028.13441
  93305007.70541      -271.06341        22.800  
  23089470.59846 120593292.80946     -3252.56346        42.200    23089471.33541
  94547540.39041     -2534.62541        24.700  
  20695486.90248 108012829.97848      -727.81348        47.700    20695487.92741
  84165988.70541      -567.31341        29.600  
  23683615.29345 123715577.58945     -3368.37545        39.600                  
                                                
 04 06 07 12 09 40.0000000  0  7G20G16G25G 6G30G14G22                           
  24754714.45143 130086895.91343      2223.87543        35.000                  
                                                
  21838561.79947 114019739.67147      2190.81347        45.000    21838564.11441
  88846701.26541      1706.93841        20.300  
  21740758.88648 113505789.06048       392.56348        47.100    21740760.65641
  88446215.65441       305.75041        25.800  
  22786093.31146 119741745.48946      -348.12546        43.200    22786096.19541
  93305278.73441      -271.43841        22.900  
  23090089.54646 120596545.41246     -3252.43846        42.100    23090090.26141
  94550074.87141     -2534.50041        19.600  
  20695625.45648 108013558.09848      -728.31348        47.700    20695626.12041
  84166556.07741      -567.68841        26.800  
  23684256.27045 123718945.81945     -3368.12545        39.900                  
                                                
 04 06 07 12 09 41.0000000  0  7G20G16G25G 6G30G14G22                           
  24754291.28442 130084672.25142      2223.37542        34.400                  
                                                
  21838144.86647 114017548.72047      2190.87547        45.100    21838147.16241
  88844994.03241      1707.00041        25.700  
  21740684.14248 113505396.29048       393.06348        47.100    21740685.88841
  88445909.60041       306.12541        26.700  
  22786159.53646 119742093.47946      -348.00046        43.300    22786162.39441
  93305549.90441      -271.31341        16.000  
  23090708.44546 120599797.78046     -3252.43846        41.800    23090708.74841
  94552609.15541     -2534.50041        21.300  
  20695764.04548 108014286.37748      -728.18848        47.700    20695764.68441
  84167123.56441      -567.56341        27.300  
  23684897.15245 123722313.72345     -3367.50045        39.500                  
                                                
 04 06 07 12 09 42.0000000  0  7G20G16G25G 6G30G14G22                           
  24753868.14942 130082448.67242      2223.56342        34.200                  
                                                
  21837727.94647 114015357.90247      2190.87547        45.000    21837729.95941
  88843286.88841      1707.00041        22.800  
  21740609.34048 113505003.22748       393.25048        47.000    21740611.14741
  88445603.33641       306.25041        27.500  
  22786225.80346 119742441.67046      -348.00046        43.300    22786227.85641
  93305821.19541      -271.31341        12.600  
  23091327.31246 120603049.93246     -3252.12546        41.900    23091327.61341
  94555143.38241     -2534.31341        13.300  
  20695902.66849 108015014.85949      -728.62549        47.800    20695903.49241
  84167691.21941      -567.93841        29.200  
  23685537.98845 123725681.36045     -3367.75045        39.700                  
                                                
 04 06 07 12 09 43.0000000  0  7G20G16G25G 6G30G14G22                           
  24753445.01042 130080225.18142      2223.93842        34.400                  
                                                
  21837311.05447 114013167.18147      2190.62547        45.000    21837313.06341
  88841579.86641      1706.81341        14.200  
  21740534.48048 113504609.82548       393.50048        47.000    21740536.26041
  88445296.78841       306.43841        28.100  
  22786292.10546 119742790.05946      -348.81346        43.200    22786294.13241
  93306092.68441      -271.93841         9.200  
  23091946.12546 120606301.83046     -3252.06346        42.400    23091949.26941
  94557677.37741     -2534.25041        21.700  
  20696041.32048 108015743.47948      -728.68848        47.700    20696042.12541
  84168258.98441      -568.00041        28.600  
  23686178.75145 123729048.63445     -3367.18845        39.600                  
                                                
 04 06 07 12 09 44.0000000  0  7G20G16G25G 6G30G14G22                           
  24753021.94443 130078001.90443      2222.75043        34.600                  
                                                
  21836894.18047 114010976.51947      2190.68847        45.100    21836898.57041
  88839872.87541      1706.87541        18.000  
  21740459.54748 113504216.06948       393.81348        47.000    21740461.23341
  88444989.96241       306.68841        28.500  
  22786358.43846 119743138.60146      -348.75046        43.200    22786359.56441
  93306364.26641      -271.93841        23.700  
  23092564.88046 120609553.48646     -3251.56346        42.300    23092568.01841
  94560211.14041     -2533.87541        17.700  
  20696180.01048 108016472.26148      -728.93848        47.700    20696180.90541
  84168826.86341      -568.18841        30.400  
  23686819.46245 123732415.57945     -3366.93845        39.800                  
                                                
 04 06 07 12 09 45.0000000  0  7G20G16G25G 6G30G14G22                           
  24752598.87342 130075778.66042      2222.87542        34.300                  
                                                
  21836477.33947 114008785.99047      2190.62547        45.100    21836481.70041
  88838165.95941      1706.81341        25.000  
  21740384.55348 113503822.00048       394.18848        47.100    21740386.22041
  88444682.88441       307.00041        20.200  
  22786424.80146 119743487.36846      -348.93846        43.200    22786425.90741
  93306636.04141      -272.06341        24.800  
  23093183.60946 120612804.92846     -3251.25046        42.200    23093186.85141
  94562744.70941     -2533.62541        22.100  
  20696318.72548 108017201.21448      -729.00048        47.700    20696319.59741
  84169394.88541      -568.18841        27.800  
  23687460.11045 123735782.22845     -3366.75045        39.800                  
                                                
 04 06 07 12 09 46.0000000  0  7G20G16G25G 6G30G14G22                           
  24752175.85842 130073555.75542      2222.50042        34.200                  
                                                
  21836060.54547 114006595.78847      2190.00047        45.300    21836064.12641
  88836459.29041      1706.31341        25.400  
  21740309.53948 113503427.82848       394.06348        47.100    21740310.54041
  88444375.72541       306.87541        27.900  
  22786491.25946 119743836.53146      -349.62546        43.300    22786492.24341
  93306908.07141      -272.62541        23.300  
  23093802.33646 120616056.36046     -3251.37546        42.100    23093805.55441
  94565278.27941     -2533.68841        23.900  
  20696457.52749 108017930.58049      -729.68849        47.800    20696459.07441
  84169963.23141      -568.75041        29.700  
  23688100.72545 123739148.72945     -3366.43845        39.500                  
                                                
 04 06 07 12 09 47.0000000  0  7G20G16G25G 6G30G14G22                           
  24751752.78442 130071332.52342      2224.31342        34.200                  
                                                
  21835643.68547 114004405.22047      2191.62547        45.300    21835647.24941
  88834752.34341      1707.62541        27.100  
  21740234.38148 113503032.88048       396.06348        47.100    21740235.37141
  88444067.99641       308.43841        29.100  
  22786557.66146 119744185.43046      -347.93846        43.300    22786558.62241
  93307179.98341      -271.31341        23.400  
  23094420.93546 120619307.10246     -3249.50046        42.100    23094423.06741
  94567811.34141     -2532.25041        21.500  
  20696596.26548 108018659.65048      -728.25048        47.600    20696597.78741
  84170531.32741      -567.62541        28.500  
  23688741.19745 123742514.50745     -3364.31345        39.700                  
                                                
 04 06 07 12 09 48.0000000  0  7G20G16G25G 6G30G14G22                           
  24751329.69043 130069109.22243      2222.00043        34.800                  
                                                
  21835226.80047 114002214.54547      2189.62547        45.300    21835230.26441
  88833045.33941      1706.06341        23.100  
  21740159.11648 113502637.39248       394.56348        47.100    21740160.46441
  88443759.83341       307.31341        26.900  
  22786624.06846 119744534.33246      -350.06346        43.100    22786626.56441
  93307451.85641      -272.93841        20.800  
  23095039.43846 120622557.42846     -3251.43846        42.000    23095041.56341
  94570344.05841     -2533.75041        26.200  
  20696734.99848 108019388.68948      -730.37548        47.700    20696735.94041
  84171099.39741      -569.31341        31.200  
  23689381.57345 123745879.75545     -3366.00045        39.900                  
                                                
 04 06 07 12 09 49.0000000  0  7G20G16G25G 6G30G14G22                           
  24750907.11643 130066887.62243      2221.68843        35.100                  
                                                
  21834810.24847 114000025.61247      2188.68847        45.300    21834813.69441
  88831339.64441      1705.31341        26.400  
  21740084.10648 113502243.22448       394.06348        47.000    21740085.43141
  88443452.68541       306.87541        27.200  
  22786690.81046 119744885.06146      -351.25046        43.300    22786693.28241
  93307725.13141      -273.87541        17.200  
  23095658.21546 120625809.13446     -3251.81346        42.200    23095661.18241
  94572877.87241     -2534.06341        10.100  
  20696874.06348 108020119.52748      -731.31348        47.700    20696874.99541
  84171668.88741      -570.00041        28.900  
  23690022.20045 123749246.31645     -3366.81345        39.700                  
                                                
 04 06 07 12 09 50.0000000  0  7G20G16G25G 6G30G14G22                           
  24750483.98243 130064666.47243      2221.06343        35.300                  
                                                
  21834393.77247 113997837.09247      2188.43847        45.300    21834396.73941
  88829634.31041      1705.12541        25.300  
  21740009.09248 113501849.04048       394.37548        47.000    21740010.41541
  88443145.53441       307.12541        26.000  
  22786757.65146 119745236.27646      -351.43846        43.100    22786759.59641
  93307998.81041      -274.00041        26.900  
  23096277.02346 120629060.92346     -3251.56346        42.000    23096279.94841
  94575411.69641     -2533.87541        17.100  
  20697013.22948 108020850.84348      -731.50048        47.600    20697014.67041
  84172238.74541      -570.18841        28.200  
  23690662.81145 123752612.82845     -3366.25045        39.500    23690658.77341
  97009297.19451     -2623.12541        12.900  
 04 06 07 12 09 51.0000000  0  7G20G16G25G 6G30G14G22                           
  24750061.38443 130062444.92043      2222.18843        34.800                  
                                                
  21833977.21847 113995648.13047      2189.81347        45.100    21833980.17441
  88827928.64641      1706.18841        19.800  
  21739933.91748 113501454.00848       395.93848        47.000    21739935.22741
  88442837.73541       308.37541        26.600  
  22786824.42946 119745587.18046      -350.25046        43.100    22786826.35341
  93308272.26741      -273.06341        24.800  
  23096895.67346 120632311.95446     -3250.25046        42.300    23096895.74641
  94577944.94241     -2532.81341        19.800  
  20697152.32248 108021581.79548      -730.31348        47.600    20697153.74641
  84172808.31641      -569.25041        29.700  
  23691303.28945 123755978.55545     -3365.00045        39.600    23691299.23641
  97011919.86741     -2622.18841        12.800  
 04 06 07 12 09 52.0000000  0  7G20G16G25G 6G30G14G22                           
  24749638.73443 130060222.84543      2221.62543        35.400                  
                                                
  21833560.56647 113993458.63547      2189.25047        45.300    21833564.26641
  88826222.55341      1705.75041        25.700  
  21739858.55548 113501058.00748       395.93848        47.000    21739860.20441
  88442529.14941       308.37541        26.600  
  22786891.12746 119745937.64546      -350.62546        43.200    22786894.92341
  93308545.38541      -273.37541        19.900  
  23097514.15746 120635562.11246     -3249.93846        42.000    23097514.22941
  94580477.61341     -2532.56341        26.600  
  20697291.32748 108022312.30348      -730.62548        47.700    20697292.66041
  84173377.53941      -569.50041        31.900  
  23691943.56545 123759343.26945     -3364.68845        39.700    23691941.08141
  97014541.72041     -2622.00041        19.500  
 04 06 07 12 09 53.0000000  0  7G20G16G25G 6G30G14G22                           
  24749215.82143 130058001.35043      2220.68843        35.900                  
                                                
  21833144.01747 113991269.69447      2188.50047        45.400    21833147.70441
  88824516.89541      1705.18841        23.100  
  21739783.21648 113500662.13448       395.62548        47.100    21739784.84941
  88442220.68441       308.12541        26.500  
  22786957.93946 119746288.75146      -351.68846        43.000    22786961.70341
  93308818.93641      -274.18841        20.000  
  23098132.69646 120638812.49546     -3250.50046        42.300    23098135.65941
  94583010.36141     -2533.00041        21.600  
  20697430.45548 108023043.42948      -731.62548        47.700    20697431.76741
  84173947.24841      -570.25041        29.200  
  23692583.86245 123762708.14745     -3365.18845        39.400    23692581.37841
  97017163.72041     -2622.37541        15.400  
 04 06 07 12 09 54.0000000  0  7G20G16G25G 6G30G14G22                           
  24748792.62943 130055780.71143      2220.31343        35.400                  
                                                
  21832727.62647 113989081.60747      2187.81347        45.400    21832731.45041
  88822811.91241      1704.62541        23.700  
  21739707.96348 113500266.68648       395.50048        47.000    21739710.28541
  88441912.57841       308.00041        26.500  
  22787024.94546 119746640.80946      -352.50046        43.100    22787027.17041
  93309093.19041      -274.81341         9.100  
  23098751.34346 120642063.44046     -3251.31346        42.400    23098754.27241
  94585543.55941     -2533.62541        15.100  
  20697569.75648 108023775.47548      -732.43848        47.700    20697571.29541
  84174517.67941      -570.87541        31.000  
  23693224.24345 123766073.43745     -3365.12545        39.900    23693221.95541
  97019785.96841     -2622.31341        24.600  
 04 06 07 12 09 55.0000000  0  7G20G16G25G 6G30G14G22                           
  24748370.25243 130053560.86243      2219.06343        35.000                  
                                                
  21832311.37847 113986894.27847      2186.93847        45.300    21832315.19341
  88821107.49941      1703.93841        22.600  
  21739632.77548 113499871.57948       395.00048        47.000    21739635.07641
  88441604.69541       307.62541        25.800  
  22787092.09546 119746993.69046      -353.25046        43.200    22787094.30041
  93309368.17741      -275.43841        22.500  
  23099370.06046 120645314.74646     -3251.50046        42.200    23099374.70641
  94588077.07641     -2533.81341        23.200  
  20697709.21048 108024508.34148      -733.18848        47.600    20697710.73241
  84175088.75041      -571.50041        28.900  
  23693864.69545 123769439.07745     -3366.12545        39.600    23693862.39041
  97022408.53941     -2623.12541        25.200  
 04 06 07 12 09 56.0000000  0  7G20G16G25G 6G30G14G22                           
  24747947.61843 130051341.67543      2218.75043        35.000                  
                                                
  21831895.27447 113984707.65547      2186.12547        45.400    21831898.75841
  88819403.62841      1703.31341        27.700  
  21739557.64248 113499476.74748       394.68848        47.100    21739559.86441
  88441297.02841       307.37541        28.800  
  22787159.38746 119747347.35946      -353.81346        43.200    22787161.62841
  93309643.82841      -275.87541        25.100  
  23099988.83846 120648566.43946     -3252.00046        42.300    23099993.45141
  94590610.82541     -2534.18841        28.300  
  20697848.81348 108025241.97848      -734.00048        47.700    20697850.16541
  84175660.41541      -572.12541        30.800  
  23694505.18745 123772804.99045     -3366.12545        39.700    23694502.70341
  97025031.23641     -2623.12541        12.600  
 04 06 07 12 09 57.0000000  0  7G20G16G25G 6G30G14G22                           
  24747525.56343 130049123.28743      2217.93843        35.500                  
                                                
  21831479.31247 113982521.75947      2185.68847        45.400    21831482.77041
  88817700.32641      1702.93841        26.600  
  21739482.56948 113499082.22748       394.43848        47.100    21739484.76941
  88440989.61641       307.18841        26.700  
  22787226.85846 119747701.88746      -355.06346        43.100    22787229.07341
  93309920.10141      -276.81341        20.300  
  23100607.70346 120651818.54546     -3252.31346        42.200    23100610.48941
  94593144.92141     -2534.43841        26.500  
  20697988.57348 108025976.42948      -734.68848        47.600    20697989.90441
  84176232.71141      -572.62541        29.200  
  23695145.73645 123776171.21945     -3366.50045        39.700    23695143.25841
  97027654.29041     -2623.43841        20.700  
 04 06 07 12 09 58.0000000  0  7G20G16G25G 6G30G14G22                           
  24747103.44843 130046905.64543      2217.43843        35.600    24747109.68741
 101335282.35651      1727.75041        24.500  
  21831063.48147 113980336.60747      2184.87547        45.400    21831067.18641
  88815997.60441      1702.31341        22.200  
  21739407.54748 113498688.01648       394.12548        47.000    21739410.07341
  88440682.42941       306.93841        26.100  
  22787294.46946 119748057.22346      -355.50046        43.200    22787297.27941
  93310197.01341      -277.18841        26.900  
  23101226.62646 120655071.04746     -3252.50046        42.300    23101229.38941
  94595679.30841     -2534.56341        15.900  
  20698128.47748 108026711.68748      -735.68848        47.700    20698129.95041
  84176805.64441      -573.43841        27.300  
  23695786.36545 123779537.73545     -3366.50045        39.400    23695782.23041
  97030277.57841     -2623.43841        12.900  
 04 06 07 12 09 59.0000000  0  7G20G16G25G 6G30G14G22                           
  24746681.40943 130044688.67043      2216.87543        35.100                  
                                                
  21830647.77248 113978152.10648      2184.31348        45.600    21830651.46741
  88814295.39441      1701.87541        23.900  
  21739332.57248 113498294.02648       394.00048        47.100    21739335.07641
  88440375.43441       306.87541        26.800  
  22787362.24646 119748413.33446      -356.43846        43.200    22787365.01541
  93310474.46541      -277.93841         9.100  
  23101845.62346 120658323.88046     -3252.87546        42.400    23101848.85041
  94598213.95241     -2534.87541        10.500  
  20698268.53248 108027447.66848      -736.12548        47.700    20698269.98041
  84177379.13641      -573.75041        28.000  
  23696427.03545 123782904.53745     -3366.68845        39.400    23696422.89941
  97032901.10341     -2623.56341        24.200  
 04 06 07 12 10  0.0000000  0  7G20G16G25G 6G30G14G22                           
  24746259.77443 130042472.07843      2216.56343        35.000                  
                                                
  21830232.14147 113975968.00847      2183.87547        45.500    21830235.37241
  88812593.49941      1701.56341        20.100  
  21739257.59148 113497900.00548       394.06348        47.000    21739260.04441
  88440068.40541       306.87541        26.000  
  22787430.11346 119748769.88746      -356.56346        43.200    22787431.58341
  93310752.26641      -278.00041        16.100  
  23102464.62546 120661576.77446     -3252.93846        42.100    23102467.84041
  94600748.71941     -2534.93841        19.700  
  20698408.67448 108028184.11148      -736.62548        47.700    20698409.88941
  84177952.99641      -574.18841        28.400  
  23697067.67245 123786271.28545     -3367.00045        39.300    23697066.19041
  97035524.60741     -2623.81341        23.100  
 04 06 07 12 10  1.0000000  0  7G20G16G25G 6G30G14G22                           
  24745837.90943 130040256.05943      2217.18843        34.800                  
                                                
  21829816.60848 113973784.40248      2183.37548        45.600    21829819.82441
  88810891.98541      1701.18841        13.100  
  21739182.62948 113497506.06748       393.87548        47.000    21739185.05841
  88439761.44641       306.75041        27.400  
  22787498.07946 119749127.06946      -357.50046        43.100    22787499.53441
  93311030.62641      -278.75041        25.200  
  23103083.66146 120664829.82146     -3253.06346        42.100    23103088.63241
  94603283.57841     -2535.00041        10.100  
  20698548.92948 108028921.13548      -737.37548        47.700    20698550.11941
  84178527.29841      -574.75041        31.000  
  23697708.36045 123789638.11045     -3367.18845        39.700    23697706.85041
  97038148.08341     -2623.93841        24.800  
 04 06 07 12 10  2.0000000  0  7G20G16G25G 6G30G14G22                           
  24745416.24243 130038040.48743      2215.25043        35.400                  
                                                
  21829401.17148 113971601.25648      2183.12548        45.600    21829403.57541
  88809190.83241      1701.00041        26.500  
  21739107.66248 113497112.16648       393.93848        47.000    21739109.57841
  88439454.49841       306.81341        28.200  
  22787566.14846 119749484.79046      -357.93846        43.000    22787568.19441
  93311309.37841      -279.06341        25.500  
  23103702.74346 120668083.03646     -3253.12546        42.100    23103707.68641
  94605818.60241     -2535.06341        18.100  
  20698689.27648 108029658.68148      -737.68848        47.600    20698690.20141
  84179101.99841      -575.00041        28.800  
  23698349.03845 123793004.97445     -3366.87545        39.600    23698347.50241
  97040771.65641     -2623.68841        19.100  
 04 06 07 12 10  3.0000000  0  7G20G16G25G 6G30G14G22                           
  24744994.54943 130035825.36043      2214.93843        35.000                  
                                                
  21828985.80448 113969418.56248      2182.50048        45.600    21828988.19541
  88807490.03141      1700.50041        24.700  
  21739032.70648 113496718.26448       393.87548        47.000    21739034.59641
  88439147.55741       306.75041        22.700  
  22787634.31946 119749843.05046      -358.50046        43.000    22787636.34341
  93311588.54041      -279.50041        21.800  
  23104321.82546 120671336.33746     -3253.50046        42.100    23104326.71041
  94608353.61841     -2535.37541        24.300  
  20698829.72548 108030396.73848      -738.31348        47.700    20698830.63241
  84179677.12541      -575.50041        28.600  
  23698989.73045 123796371.89245     -3367.00045        39.600    23698988.18441
  97043395.22641     -2623.81341        12.800  
 04 06 07 12 10  4.0000000  0  7G20G16G25G 6G30G14G22                           
  24744573.03743 130033610.63943      2214.25043        35.300                  
                                                
  21828570.52047 113967236.24847      2182.18847        45.400    21828572.95541
  88805789.55241      1700.25041        22.700  
  21738957.74448 113496324.32848       394.12548        47.000    21738959.40241
  88438840.60141       306.93841        25.900  
  22787702.57546 119750201.76446      -358.75046        42.900    22787704.47741
  93311868.02941      -279.68841        29.600  
  23104940.92946 120674589.69646     -3253.43846        42.300    23104945.77241
  94610888.67341     -2535.31341        22.500  
  20698970.25948 108031135.24948      -738.68848        47.700    20698971.77441
  84180252.58941      -575.75041        27.600  
  23699630.40445 123799738.73945     -3366.81345        39.600    23699627.21241
  97046018.67641     -2623.62541        27.900  
 04 06 07 12 10  5.0000000  0  7G20G16G25G 6G30G14G22                           
  24744151.70643 130031396.32543      2214.56343        34.900                  
                                                
  21828155.32448 113965054.35748      2181.56348        45.600    21828157.73841
  88804089.39441      1699.75041        20.800  
  21738882.77748 113495930.38748       393.93848        47.100    21738884.41941
  88438533.65041       306.81341        28.500  
  22787770.93546 119750561.02146      -359.43846        42.900    22787772.82741
  93312148.01341      -280.25041        23.200  
  23105560.02246 120677843.12246     -3253.56346        42.200    23105563.06041
  94613423.75641     -2535.43841        27.100  
  20699110.88248 108031874.25248      -739.37548        47.700    20699112.37841
  84180828.43741      -576.31341        30.000  
  23700271.09745 123803105.55845     -3366.93845        39.700    23700267.87541
  97048642.17741     -2623.75041        15.700  
 04 06 07 12 10  6.0000000  0  7G20G16G25G 6G30G14G22                           
  24743730.54243 130029182.59743      2213.12543        35.100                  
                                                
  21827740.21548 113962872.96048      2181.06348        45.600    21827743.30441
  88802389.59741      1699.37541        21.900  
  21738807.82248 113495536.51848       393.75048        47.000    21738809.76941
  88438226.72941       306.62541        23.700  
  22787839.41546 119750920.88346      -360.50046        42.900    22787843.18941
  93312428.45641      -281.06341        29.300  
  23106179.16546 120681096.71646     -3254.00046        42.100    23106182.18141
  94615959.04441     -2535.75041        10.100  
  20699251.60948 108032613.81648      -739.87548        47.700    20699252.98441
  84181404.71941      -576.68841        28.900  
  23700911.80145 123806472.47045     -3367.06345        39.700    23700910.45941
  97051265.81441     -2623.87541        12.600  
 04 06 07 12 10  7.0000000  0  7G20G16G25G 6G30G14G22                           
  24743309.38143 130026969.30743      2213.00043        35.500                  
                                                
  21827325.18947 113960692.01047      2180.87547        45.400    21827328.25641
  88800690.13741      1699.18841        25.200  
  21738732.87348 113495142.70048       393.87548        47.100    21738734.80941
  88437919.87341       306.75041        28.400  
  22787907.99346 119751281.26546      -360.75046        43.200    22787911.74741
  93312709.28941      -281.25041        19.800  
  23106798.32946 120684350.44846     -3253.68846        41.900    23106799.89641
  94618494.38041     -2535.50041        17.700  
  20699392.44948 108033353.92148      -740.31348        47.600    20699393.79441
  84181981.41341      -577.06341        28.800  
  23701552.51745 123809839.43345     -3366.81345        39.600                  
                                                
 04 06 07 12 10  8.0000000  0  7G20G16G25G 6G30G14G22                           
  24742888.25243 130024756.31143      2212.68843        35.600                  
                                                
  21826910.23047 113958511.36747      2180.50047        45.400    21826913.22341
  88798990.92141      1698.93841        25.600  
  21738657.89548 113494748.73448       394.06348        47.000    21738660.10541
  88437612.89541       306.87541        25.800  
  22787976.64446 119751642.02846      -360.87546        43.200    22787980.57441
  93312990.38541      -281.37541        27.900  
  23107417.48446 120687604.11946     -3253.37546        42.300    23107419.02841
  94621029.70541     -2535.25041        21.600  
  20699533.35448 108034094.37648      -740.62548        47.600    20699534.98141
  84182558.40041      -577.25041        29.800  
  23702193.18345 123813206.25845     -3366.68845        39.500                  
                                                
 04 06 07 12 10  9.0000000  0  7G20G16G25G 6G30G14G22                           
  24742467.56443 130022544.54943      2210.62543        35.600                  
                                                
  21826495.51348 113956331.94348      2178.18848        45.600    21826498.47841
  88797292.69741      1697.12541        20.800  
  21738583.08548 113494355.60048       391.93848        47.100    21738585.27641
  88437306.56341       305.25041        25.900  
  22788045.55346 119752004.14046      -363.43846        43.100    22788049.45141
  93313272.51241      -283.37541        21.800  
  23108036.81846 120690858.72946     -3255.62546        42.100    23108038.58741
  94623565.80841     -2537.00041        14.900  
  20699674.50348 108034836.14148      -743.12548        47.600    20699676.11241
  84183136.39841      -579.25041        29.300  
  23702834.01245 123816573.89245     -3368.75045        39.500    23702833.88341
  97059142.07551     -2625.18841        23.700  
 04 06 07 12 10 10.0000000  0  7G20G16G25G 6G30G14G22                           
  24742046.99443 130020333.76543      2211.37543        35.100                  
                                                
  21826080.96747 113954153.48147      2179.25047        45.400    21826085.33941
  88795595.20541      1697.93841        27.000  
  21738508.37848 113493962.96148       393.62548        47.000    21738510.26741
  88437000.61941       306.56341        24.400  
  22788114.65946 119752367.27046      -362.37546        43.100    22788117.09541
  93313555.45841      -282.56341        25.400  
  23108656.25646 120694113.94346     -3254.31346        42.200    23108658.02041
  94626102.36941     -2536.00041        18.300  
  20699815.84948 108035578.91848      -742.06348        47.700    20699817.28241
  84183715.19541      -578.37541        29.700  
  23703474.93045 123819942.01845     -3366.68845        39.600    23703477.24741
  97061766.68541     -2623.50041        13.000  
 04 06 07 12 10 11.0000000  0  7G20G16G25G 6G30G14G22                           
  24741626.12643 130018122.11743      2211.50043        35.600                  
                                                
  21825666.24947 113951974.08747      2179.68847        45.500    21825670.59041
  88793896.96641      1698.31341        22.100  
  21738433.40548 113493568.99048       394.37548        47.000    21738435.27641
  88436693.64141       307.12541        24.000  
  22788183.61046 119752729.58546      -362.12546        43.000    22788186.01941
  93313837.77041      -282.31341        20.300  
  23109275.47246 120697367.91246     -3253.75046        41.900    23109278.39341
  94628637.91241     -2535.56341        23.800  
  20699957.02548 108036320.85448      -741.81348        47.700    20699958.44541
  84184293.32441      -578.18841        29.500  
  23704115.61445 123823308.87745     -3366.50045        39.100                  
                                                
 04 06 07 12 10 12.0000000  0  7G20G16G25G 6G30G14G22                           
  24741205.39043 130015910.68143      2211.12543        35.600                  
                                                
  21825251.58048 113949794.96248      2178.75048        45.800    21825255.66841
  88792198.95341      1697.56341        22.300  
  21738358.39348 113493174.83248       394.12548        47.100    21738360.91741
  88436386.52241       306.93841        27.000  
  22788252.61446 119753092.23246      -362.68846        43.100    22788257.48741
  93314120.39441      -282.75041        24.300  
  23109894.66546 120700621.78046     -3253.87546        42.300    23109897.56241
  94631173.40941     -2535.62541        10.100  
  20700098.27348 108037063.09948      -742.43848        47.700    20700099.80141
  84184871.70541      -578.68841        29.500  
  23704756.24745 123826675.54045     -3366.75045        39.200                  
                                                
 04 06 07 12 10 13.0000000  0  7G20G16G25G 6G30G14G22                           
  24740784.84643 130013700.45043      2209.25043        35.800                  
                                                
  21824837.12348 113947616.96948      2176.93848        45.600    21824841.19241
  88790501.82441      1696.12541        23.300  
  21738283.52348 113492781.40748       392.68848        47.100    21738286.02241
  88436079.93641       305.81341        22.600  
  22788321.86646 119753456.10946      -364.75046        43.000    22788326.71641
  93314403.96241      -284.37541         9.100  
  23110513.99546 120703876.44146     -3255.50046        42.100    23110515.96241
  94633709.50841     -2536.93841        10.200  
  20700239.74948 108037806.55948      -744.43848        47.600    20700241.25141
  84185451.02241      -580.25041        30.700  
  23705397.00345 123830042.88545     -3367.93845        38.900                  
                                                
 04 06 07 12 10 14.0000000  0  7G20G16G25G 6G30G14G22                           
  24740364.38443 130011491.66143      2207.75043        36.000                  
                                                
  21824422.94048 113945440.41448      2176.31348        45.600    21824426.87641
  88788805.81541      1695.68841        22.900  
  21738208.83548 113492388.97848       392.37548        47.000    21738210.81541
  88435774.13641       305.56341        23.700  
  22788391.40546 119753821.53746      -365.81346        43.200    22788396.97541
  93314688.70841      -285.18841        18.300  
  23111133.53946 120707132.22646     -3256.06346        41.900    23111135.48341
  94636246.45041     -2537.37541        22.700  
  20700381.50448 108038551.52548      -745.25048        47.600    20700383.03041
  84186031.51541      -580.87541        25.900  
  23706037.97345 123833411.28145     -3368.50045        39.000                  
                                                
 04 06 07 12 10 15.0000000  0  7G20G16G25G 6G30G14G22                           
  24739944.14243 130009283.24343      2208.18843        36.000                  
                                                
  21824008.83748 113943264.27648      2175.87548        45.700    21824012.74941
  88787110.12441      1695.31341        23.300  
  21738134.15448 113491996.54448       392.62548        46.900    21738136.11541
  88435468.34141       305.75041        25.100  
  22788461.03646 119754187.44946      -365.93846        43.100    22788466.58641
  93314973.84041      -285.31341        28.400  
  23111753.10046 120710388.08446     -3255.81346        41.800    23111754.45941
  94638783.47741     -2537.18841        23.700  
  20700523.35848 108039296.97148      -745.50048        47.700    20700524.85841
  84186612.37441      -581.06341        31.300  
  23706678.94545 123836779.65545     -3368.31345        39.200                  
                                                
 04 06 07 12 10 16.0000000  0  7G20G16G25G 6G30G14G22                           
  24739524.06143 130007074.96643      2208.12543        35.700                  
                                                
  21823594.74348 113941088.20848      2175.93848        45.700    21823597.73841
  88785414.47541      1695.37541        24.000  
  21738059.41048 113491603.75948       393.06348        47.100    21738061.14941
  88435162.28541       306.12541        23.700  
  22788530.69446 119754553.54346      -366.25046        43.200    22788535.85441
  93315259.10741      -285.56341        27.300  
  23112372.62246 120713643.67746     -3255.43846        42.000    23112373.95341
  94641320.29441     -2536.87541        21.500  
  20700665.25148 108040042.57548      -745.62548        47.600    20700666.88441
  84187193.37641      -581.18841        27.400  
  23707319.84745 123840147.65445     -3367.87545        39.600                  
                                                
 04 06 07 12 10 17.0000000  0  7G20G16G25G 6G30G14G22                           
  24739103.90043 130004866.30443      2209.50043        35.700                  
                                                
  21823180.57948 113938911.76248      2177.06348        45.800    21823183.55741
  88783718.56141      1696.25041        22.600  
  21737984.51448 113491210.16448       394.37548        46.900    21737986.22741
  88434855.58641       307.12541        28.000  
  22788600.30946 119754919.32146      -365.12546        43.000    22788605.43241
  93315544.11841      -284.68841        21.700  
  23112992.00646 120716898.55946     -3254.00046        42.000    23112993.72841
  94643856.58541     -2535.75041        10.200  
  20700807.06748 108040787.84648      -744.75048        47.600    20700808.68341
  84187774.11541      -580.50041        30.500  
  23707960.59345 123843514.85345     -3366.25045        39.900                  
                                                
 04 06 07 12 10 18.0000000  0  7G20G16G25G 6G30G14G22                           
  24738683.52443 130002657.43343      2209.00043        36.200                  
                                                
  21822766.37048 113936735.10748      2176.12548        45.700    21822769.32341
  88782022.47541      1695.50041        24.500  
  21737909.49448 113490815.94248       393.87548        47.000    21737910.93641
  88434548.39741       306.75041        24.200  
  22788669.90046 119755284.99746      -366.06346        43.100    22788673.02541
  93315829.03941      -285.43841        28.500  
  23113611.28846 120720152.91246     -3254.62546        42.000    23113612.99141
  94646392.45341     -2536.25041        20.600  
  20700948.86048 108041532.99648      -745.68848        47.600    20700950.33141
  84188354.74341      -581.25041        28.800  
  23708601.23945 123846881.45045     -3366.68845        40.100                  
                                                
 04 06 07 12 10 19.0000000  0  7G20G16G25G 6G30G14G22                           
  24738263.43943 130000449.88143      2207.12543        36.200                  
                                                
  21822352.41348 113934559.68648      2174.62548        45.700    21822355.33341
  88780327.35041      1694.37541        26.600  
  21737834.63848 113490422.53348       392.81348        47.000    21737836.05341
  88434241.86241       305.93841        27.900  
  22788739.73846 119755652.01446      -367.93846        43.200    22788742.84941
  93316115.04041      -286.87541         9.200  
  23114230.73346 120723408.16346     -3255.87546        41.800    23114235.14641
  94648929.01241     -2537.18841        19.100  
  20701090.91148 108042279.45748      -747.25048        47.600    20701092.35341
  84188936.39741      -582.43841        28.700  
  23709242.02445 123850248.84145     -3367.62545        39.900                  
                                                
 04 06 07 12 10 20.0000000  0  7G20G16G25G 6G30G14G22                           
  24737843.56743 129998243.37443      2206.18843        36.000                  
                                                
  21821938.64448 113932385.35548      2174.06348        45.800    21821941.98241
  88778633.05641      1693.93841        25.200  
  21737759.89848 113490029.76548       392.81348        47.000    21737761.31741
  88433935.81641       305.93841        26.100  
  22788809.79246 119756020.20146      -368.75046        42.900    22788811.51341
  93316401.92141      -287.50041        19.700  
  23114850.32446 120726664.15846     -3256.00046        41.700    23114854.71541
  94651466.13441     -2537.31341        24.800  
  20701233.17748 108043027.07448      -747.93848        47.600    20701234.30841
  84189518.96441      -583.00041        28.200  
  23709882.94245 123853616.88645     -3368.00045        40.300                  
                                                
 04 06 07 12 10 21.0000000  0  7G20G16G25G 6G30G14G22                           
  24737423.55743 129996036.67943      2207.25043        36.300                  
                                                
  21821524.84747 113930210.79647      2175.18847        45.500    21821528.15241
  88776938.58541      1694.81341        25.300  
  21737685.03348 113489636.35748       394.37548        46.900    21737686.43641
  88433629.28341       307.12541        26.700  
  22788879.82946 119756388.24146      -367.50046        43.200    22788881.52541
  93316688.70341      -286.50041        23.600  
  23115469.82546 120729919.59646     -3254.37546        41.800    23115471.24841
  94654002.82541     -2536.06341        20.500  
  20701375.41748 108043774.53848      -746.87548        47.600    20701376.52541
  84190101.41441      -582.12541        30.800  
  23710523.73345 123856984.30845     -3366.37545        40.200    23710524.46341
  97090624.76751     -2623.31341        24.100  
 04 06 07 12 10 22.0000000  0  7G20G16G25G 6G30G14G22                           
  24737003.50643 129993828.88243      2208.75043        36.300                  
                                                
  21821110.83548 113928035.13948      2176.25048        45.600    21821112.97141
  88775243.24841      1695.62541        26.600  
  21737609.87048 113489241.42448       395.81348        47.000    21737611.73041
  88433321.54341       308.25041        21.600  
  22788949.68046 119756755.28946      -366.43846        42.900    22788951.98541
  93316974.70441      -285.68841         9.300  
  23116089.03246 120733173.61246     -3253.25046        42.000    23116090.45341
  94656538.44441     -2535.18841        16.200  
  20701517.46148 108044520.96848      -745.81348        47.600    20701519.16441
  84190683.04541      -581.31341        29.500  
  23711164.22045 123860350.17445     -3365.06345        40.100    23711164.95941
  97093247.59041     -2622.25041        26.900  
 04 06 07 12 10 23.0000000  0  7G20G16G25G 6G30G14G22                           
  24736583.32043 129991620.67643      2208.50043        36.300                  
                                                
  21820696.73548 113925859.03148      2176.06348        45.800    21820698.85341
  88773547.58941      1695.43841        23.500  
  21737534.54648 113488845.61648       396.12548        47.000    21737536.38741
  88433013.09841       308.50041        25.200  
  22789019.47246 119757121.96546      -366.75046        42.900    22789021.74541
  93317260.45041      -285.93841        22.300  
  23116708.11846 120736426.82146     -3252.93846        42.000    23116710.54141
  94659073.43341     -2534.93841        21.800  
  20701659.43148 108045267.02548      -746.06348        47.700    20701661.11141
  84191264.38341      -581.50041        27.700  
  23711804.55345 123863715.19545     -3364.87545        40.300    23711807.17741
  97095869.64941     -2622.12541        24.300  
 04 06 07 12 10 24.0000000  0  7G20G16G25G 6G30G14G22                           
  24736163.30343 129989413.04443      2207.31343        36.400                  
                                                
  21820282.74348 113923683.49948      2175.06348        45.700    21820284.94541
  88771852.36941      1694.68841        17.000  
  21737459.25448 113488449.96848       395.31348        47.000    21737461.39441
  88432704.80941       307.87541        23.200  
  22789089.37346 119757489.32346      -367.81346        43.100    22789092.58841
  93317546.70641      -286.75041        25.200  
  23117327.25046 120739680.27546     -3253.56346        42.000    23117329.62941
  94661608.56141     -2535.43841        23.000  
  20701801.51948 108046013.72248      -747.31348        47.700    20701803.10041
  84191846.21741      -582.50041        25.800  
  23712444.93145 123867080.34545     -3365.31345        40.100    23712447.50841
  97098491.77941     -2622.50041        14.800  
 04 06 07 12 10 25.0000000  0  7G20G16G25G 6G30G14G22                           
  24735743.36943 129987206.27343      2206.87543        36.300                  
                                                
  21819868.91348 113921508.81148      2174.37548        45.700    21819871.09841
  88770157.82241      1694.12541        25.000  
  21737384.03948 113488054.72248       395.18848        47.000    21737386.16141
  88432396.82541       307.75041        25.500  
  22789159.46746 119757857.60446      -368.56346        43.000    22789162.64241
  93317833.65041      -287.37541        23.300  
  23117946.45646 120742934.26446     -3254.12546        41.900    23117948.90541
  94664144.11741     -2535.87541        16.000  
  20701943.77748 108046761.32748      -747.81348        47.700    20701945.33941
  84192428.75641      -582.87541        28.100  
  23713085.38945 123870445.92245     -3365.75045        39.100    23713088.33941
  97101114.30841     -2622.81341        17.700  
 04 06 07 12 10 26.0000000  0  7G20G16G25G 6G30G14G22                           
  24735323.66343 129985000.28743      2205.43843        36.000                  
                                                
  21819455.22848 113919334.85148      2173.56348        45.600    21819457.77141
  88768463.82741      1693.50041        24.800  
  21737308.87548 113487659.79148       394.68848        47.100    21737310.79641
  88432089.10341       307.37541        25.300  
  22789229.70846 119758226.72246      -369.75046        43.200    22789232.13641
  93318121.28141      -288.31341        14.800  
  23118565.73546 120746188.64346     -3254.68846        41.900    23118568.16141
  94666679.96041     -2536.31341        10.500  
  20702086.19848 108047509.75248      -748.93848        47.600    20702087.51641
  84193011.94241      -583.75041        28.900  
  23713725.88645 123873811.79345     -3365.93845        39.700    23713728.80741
  97103737.00241     -2623.00041        12.600  
 04 06 07 12 10 27.0000000  0  7G20G16G25G 6G30G14G22                           
  24734904.02843 129982795.13243      2205.43843        36.400                  
                                                
  21819041.70648 113917161.78048      2172.68848        45.600    21819044.22741
  88766770.52641      1692.81341        24.200  
  21737233.81048 113487265.30748       394.62548        47.000    21737235.70741
  88431781.72041       307.31341        26.200  
  22789300.12746 119758596.81546      -370.56346        43.100    22789302.54441
  93318409.69041      -288.93841        25.800  
  23119185.12746 120749443.54646     -3254.75046        41.900    23119189.26441
  94669216.30041     -2536.31341        19.700  
  20702228.80648 108048259.13048      -749.62548        47.700    20702230.09841
  84193595.87241      -584.31341        28.500  
  23714366.48245 123877178.12745     -3366.18845        39.600    23714366.45541
  97106360.15541     -2623.18841        12.800  
 04 06 07 12 10 28.0000000  0  7G20G16G25G 6G30G14G22                           
  24734484.50643 129980590.80143      2204.50043        36.300                  
                                                
  21818628.33548 113914989.45748      2172.00048        45.600    21818631.58641
  88765077.81641      1692.31341        24.300  
  21737158.79848 113486871.16148       394.06348        47.000    21737160.07841
  88431474.59941       306.87541        24.800  
  22789370.69846 119758967.72846      -371.18846        43.100    22789372.82241
  93318698.69541      -289.37541        25.000  
  23119804.59946 120752698.88146     -3255.37546        42.000    23119808.71641
  94671752.95241     -2536.81341        10.200  
  20702371.55948 108049009.32848      -750.43848        47.700    20702372.38641
  84194180.44441      -584.93841        29.800  
  23715007.13045 123880544.80145     -3366.75045        38.900    23715007.08741
  97108983.52341     -2623.62541        12.800  
 04 06 07 12 10 29.0000000  0  7G20G16G25G 6G30G14G22                           
  24734065.23043 129978386.96643      2203.12543        36.000                  
                                                
  21818215.04648 113912817.60048      2171.62548        45.700    21818218.27641
  88763385.47641      1692.00041        20.300  
  21737083.79348 113486477.03848       394.18848        47.000    21737085.06041
  88431167.49741       307.00041        25.600  
  22789441.36946 119759339.20146      -371.68846        42.900    22789443.48941
  93318988.14441      -289.81341        14.700  
  23120424.09546 120755954.34146     -3255.68846        41.800    23120426.25541
  94674289.68641     -2537.06341        25.700  
  20702514.42348 108049760.06148      -751.06348        47.600    20702515.22941
  84194765.43041      -585.43841        27.800  
  23715647.78044 123883911.49544     -3366.50044        38.700    23715649.24441
  97111606.96341     -2623.43841        13.500  
 04 06 07 12 10 30.0000000  0  7G20G16G25G 6G30G14G22                           
  24733645.89743 129976183.59343      2202.75043        35.800                  
                                                
  21817801.84848 113910646.22948      2171.00048        45.600    21817805.37141
  88761693.47241      1691.50041        20.900  
  21737008.80248 113486082.98848       394.00048        47.000    21737010.58741
  88430860.44241       306.87541        28.700  
  22789512.17246 119759711.28246      -372.56346        42.900    22789513.12041
  93319278.14141      -290.50041        14.900  
  23121043.61746 120759209.95446     -3255.87546        41.900    23121045.74441
  94676826.48441     -2537.18841        10.300  
  20702657.38548 108050511.35748      -751.62548        47.600    20702658.94741
  84195350.88241      -585.87541        30.500  
  23716288.43744 123887278.29944     -3367.18844        38.800    23716289.91241
  97114230.48541     -2623.93841        13.400  
 04 06 07 12 10 31.0000000  0  7G20G16G25G 6G30G14G22                           
  24733226.84143 129973980.87743      2202.12543        36.200                  
                                                
  21817388.75648 113908475.45948      2170.43848        45.600    21817392.26841
  88760001.97141      1691.06341        25.200  
  21736933.84648 113485689.11148       393.93848        47.000    21736935.61241
  88430553.53041       306.81341        25.200  
  22789583.11046 119760084.03946      -373.06346        43.200    22789584.03441
  93319568.61841      -290.87541        26.600  
  23121663.19846 120762465.82946     -3255.87546        42.100    23121664.15841
  94679363.52741     -2537.18841        22.800  
  20702800.48348 108051263.33248      -752.31348        47.600    20702802.02241
  84195936.84541      -586.37541        26.600  
  23716929.15244 123890645.22044     -3367.18844        38.400    23716928.90841
  97116854.17041     -2623.87541        25.500  
 04 06 07 12 10 32.0000000  0  7G20G16G25G 6G30G14G22                           
  24732807.84743 129971778.64843      2202.31343        35.700                  
                                                
  21816975.76947 113906305.20947      2170.06347        45.500    21816979.63641
  88758310.88741      1690.81341        18.500  
  21736858.91848 113485295.33448       393.81348        47.100    21736861.34141
  88430246.69141       306.68841        27.500  
  22789654.15646 119760457.41546      -373.50046        43.000    22789655.15641
  93319859.51741      -291.18841        18.700  
  23122282.80646 120765721.90346     -3256.00046        41.800    23122283.74741
  94681900.74441     -2537.31341        25.500  
  20702943.69148 108052015.87148      -752.68848        47.700    20702945.03941
  84196523.23141      -586.68841        28.700  
  23717569.88044 123894012.23844     -3366.87544        38.600    23717569.60541
  97119477.81341     -2623.68841        23.200  
 04 06 07 12 10 33.0000000  0  7G20G16G25G 6G30G14G22                           
  24732388.78643 129969576.85543      2201.62543        36.400                  
                                                
  21816562.86748 113904135.35648      2169.62548        45.600    21816566.70141
  88756620.10041      1690.43841        22.300  
  21736783.97448 113484901.52848       393.75048        47.000    21736786.38041
  88429939.82941       306.62541        26.800  
  22789725.27146 119760831.27446      -373.93846        42.800    22789726.26741
  93320150.80641      -291.56341        24.500  
  23122902.41846 120768978.02846     -3255.93846        41.800    23122902.87241
  94684438.01741     -2537.25041        25.000  
  20703086.99248 108052768.90448      -753.37548        47.600    20703088.31241
  84197109.99741      -587.18841        29.200  
  23718210.58245 123897379.29145     -3367.00045        38.900    23718210.95041
  97122101.45241     -2623.81341        19.900  
 04 06 07 12 10 34.0000000  0  7G20G16G25G 6G30G14G22                           
  24731969.81643 129967375.48043      2201.37543        35.900                  
                                                
  21816150.02948 113901965.89948      2169.31348        45.600    21816152.64141
  88754929.60541      1690.18841        21.700  
  21736709.02048 113484507.68148       394.06348        47.000    21736710.82541
  88429632.93141       306.87541        22.800  
  22789796.51246 119761205.63446      -374.43846        43.000    22789796.14941
  93320442.48541      -291.93841        25.800  
  23123522.04446 120772234.21546     -3256.12546        41.800    23123522.47241
  94686975.27141     -2537.37541        17.600  
  20703230.37348 108053522.39048      -753.62548        47.600    20703231.22941
  84197697.13741      -587.37541        28.000  
  23718851.30045 123900746.27445     -3367.18845        39.000    23718851.65141
  97124725.09841     -2623.93841        12.900  
 04 06 07 12 10 35.0000000  0  7G20G16G25G 6G30G14G22                           
  24731551.01743 129965174.62643      2200.56343        36.000                  
                                                
  21815737.29148 113899796.96648      2168.37548        45.700    21815739.88141
  88753239.51841      1689.50041        23.200  
  21736634.09548 113484113.94448       393.50048        46.900    21736635.87641
  88429326.12041       306.43841        26.900  
  22789867.86646 119761580.59946      -375.50046        43.000    22789867.48041
  93320734.67141      -292.75041        27.000  
  23124141.72246 120775490.60346     -3256.87546        42.000    23124145.04041
  94689512.71341     -2538.00041        23.100  
  20703373.86648 108054276.46448      -754.50048        47.600    20703374.70141
  84198284.72741      -588.06341        31.100  
  23719491.99945 123904113.31445     -3366.93845        39.400    23719495.30141
  97127348.82641     -2623.75041        12.800  
 04 06 07 12 10 36.0000000  0  7G20G16G25G 6G30G14G22                           
  24731132.34243 129962974.32443      2200.25043        36.400                  
                                                
  21815324.65748 113897628.57748      2168.18848        45.600    21815326.68341
  88751549.87141      1689.31341        22.900  
  21736559.18348 113483720.32448       393.56348        46.900    21736560.54141
  88429019.41141       306.50041        25.700  
  22789939.35346 119761956.19846      -375.87546        42.800    22789940.61341
  93321027.41441      -293.06341        14.500  
  23124761.43846 120778747.18746     -3256.75046        41.800    23124764.72841
  94692050.31841     -2537.87541        24.300  
  20703517.48248 108055031.18048      -755.12548        47.700    20703518.84341
  84198872.82741      -588.56341        30.100  
  23720132.75845 123907480.52445     -3367.50045        39.900    23720136.01741
  97129972.54441     -2624.18841        19.400  
 04 06 07 12 10 37.0000000  0  7G20G16G25G 6G30G14G22                           
  24730713.73643 129960774.60143      2199.25043        36.300                  
                                                
  21814912.11748 113895460.66948      2167.75048        45.600    21814914.12941
  88749860.62641      1689.00041        18.300  
  21736484.28448 113483326.75348       393.62548        46.900    21736485.62741
  88428712.73941       306.56341        26.500  
  22790010.94146 119762332.39546      -376.56346        42.800    22790012.19141
  93321320.60341      -293.56341        21.800  
  23125381.17546 120782003.90946     -3256.81346        41.700    23125384.19441
  94694588.02241     -2537.93841        13.000  
  20703661.19948 108055786.41248      -755.50048        47.600    20703662.53541
  84199461.31741      -588.87541        29.100  
  23720773.51345 123910847.76245     -3367.25045        40.000                  
                                                
 04 06 07 12 10 38.0000000  0  7G20G16G25G 6G30G14G22                           
  24730295.26443 129958575.35343      2198.75043        36.600                  
                                                
  21814499.68548 113893293.31048      2167.25048        45.800    21814504.36241
  88748171.78541      1688.62541        23.800  
  21736409.40748 113482933.29848       393.50048        46.900    21736411.14641
  88428406.16041       306.43841        23.800  
  22790082.64046 119762709.18446      -376.87546        43.100    22790084.38641
  93321614.15641      -293.81341        18.600  
  23126000.94446 120785260.82546     -3256.81346        41.800    23126003.95041
  94697125.91041     -2537.93841        10.500  
  20703805.04248 108056542.26348      -755.81348        47.700    20703806.17141
  84200050.29141      -589.12541        31.700  
  23721414.27945 123914215.12145     -3367.25045        40.100                  
                                                
 04 06 07 12 10 39.0000000  0  7G20G16G25G 6G30G14G22                           
  24729877.03143 129956377.22443      2197.06343        36.400                  
                                                
  21814087.46248 113891127.04748      2164.87548        45.800    21814092.10741
  88746483.76241      1686.75041        26.700  
  21736334.66348 113482540.50548       391.68848        46.900    21736336.37941
  88428100.08741       305.06341        26.700  
  22790154.57046 119763087.17946      -379.25046        42.900    22790156.29641
  93321908.69741      -295.68841        16.600  
  23126620.85446 120788518.50646     -3258.93846        41.800    23126626.78041
  94699664.37741     -2539.62541        21.700  
  20703949.09548 108057299.29148      -758.31348        47.600    20703950.21241
  84200640.19841      -591.06341        30.200  
  23722055.21245 123917583.14245     -3369.00045        40.400                  
                                                
 04 06 07 12 10 40.0000000  0  7G20G16G25G 6G30G14G22                           
  24729458.96443 129954180.07743      2198.12543        36.000                  
                                                
  21813675.41448 113888961.73248      2166.00048        45.800    21813679.30541
  88744796.50841      1687.62541        25.800  
  21736260.01048 113482148.23148       393.18848        46.900    21736261.73241
  88427794.42741       306.18841        25.600  
  22790226.69246 119763466.20946      -378.37546        43.100    22790229.11541
  93322204.08941      -295.00041        13.700  
  23127240.90646 120791776.80746     -3257.50046        41.600    23127246.79941
  94702203.33841     -2538.50041        23.800  
  20704093.34348 108058057.34048      -757.43848        47.600    20704095.18341
  84201230.89241      -590.37541        29.900  
  23722696.24245 123920951.69645     -3367.68845        40.100    23722695.62641
  97140476.47351     -2624.31341        11.900  
 04 06 07 12 10 41.0000000  0  7G20G16G25G 6G30G14G22                           
  24729040.72743 129951982.12743      2198.06343        36.200                  
                                                
  21813263.20848 113886795.58648      2166.18848        45.800    21813267.07841
  88743108.60641      1687.75041        26.900  
  21736185.12148 113481754.70148       393.87548        46.900    21736186.82241
  88427487.77741       306.75041        25.000  
  22790298.68446 119763844.51546      -378.18846        42.900    22790301.07541
  93322498.84841      -294.87541        25.500  
  23127860.72546 120795033.94346     -3256.93846        41.700    23127863.63541
  94704741.27441     -2538.06341        27.600  
  20704237.45348 108058814.62248      -757.25048        47.600    20704239.26841
  84201820.97141      -590.25041        29.800  
  23723337.01445 123924318.99645     -3367.18845        40.100    23723333.44641
  97143100.31641     -2623.93841        23.900  
 04 06 07 12 10 42.0000000  0  7G20G16G25G 6G30G14G22                           
  24728622.55043 129949784.53143      2197.00043        36.500                  
                                                
  21812851.06548 113884629.75548      2165.56348        45.800    21812854.39941
  88741420.93641      1687.31341        23.200  
  21736110.20848 113481361.06848       393.68848        47.000    21736111.77441
  88427181.05741       306.62541        28.000  
  22790370.74446 119764223.22546      -378.93846        43.100    22790372.94441
  93322793.91841      -295.43841        23.700  
  23128480.52146 120798291.05346     -3257.06346        41.700    23128483.42541
  94707279.29441     -2538.12541        25.900  
  20704381.62648 108059572.29148      -757.81348        47.600    20704383.28341
  84202411.35741      -590.68841        29.700  
  23723977.77445 123927686.16445     -3367.12545        39.900    23723974.18341
  97145724.13041     -2623.87541        12.300  
 04 06 07 12 10 43.0000000  0  7G20G16G25G 6G30G14G22                           
  24728204.46443 129947587.30843      2197.00043        36.400                  
                                                
  21812439.00748 113882464.37248      2164.93848        45.600    21812442.31441
  88739733.60641      1686.81341        25.700  
  21736035.30148 113480967.45748       393.25048        46.900    21736036.85041
  88426874.34741       306.25041        25.900  
  22790442.90446 119764602.45146      -379.56346        43.200    22790445.09641
  93323089.45141      -295.93841        25.500  
  23129100.34146 120801548.28146     -3257.50046        41.500    23129102.21341
  94709817.43341     -2538.50041        28.200  
  20704525.90348 108060330.47348      -758.62548        47.600    20704527.54241
  84203002.15441      -591.31341        29.900  
  23724618.53845 123931053.37645     -3367.37545        39.600                  
                                                
 04 06 07 12 10 44.0000000  0  7G20G16G25G 6G30G14G22                           
  24727786.43243 129945390.64543      2196.93843        36.400                  
                                                
  21812027.02748 113880299.44748      2164.81348        45.600    21812028.83141
  88738046.65041      1686.68841        26.000  
  21735960.40048 113480573.87048       393.68848        46.900    21735962.02741
  88426567.65441       306.62541        28.200  
  22790515.18046 119764982.26346      -380.25046        42.900    22790516.83741
  93323385.41841      -296.43841        21.500  
  23129720.21446 120804805.64346     -3257.62546        41.500    23129722.04341
  94712355.62241     -2538.56341        16.600  
  20704670.28248 108061089.19348      -758.93848        47.600    20704671.79141
  84203593.35741      -591.56341        28.400  
  23725259.29345 123934420.58245     -3367.00045        39.400                  
                                                
 04 06 07 12 10 45.0000000  0  7G20G16G25G 6G30G14G22                           
  24727368.66743 129943195.12143      2194.37543        36.500                  
                                                
  21811615.26748 113878135.62448      2162.81348        45.700    21811617.04841
  88736360.55441      1685.12541        22.000  
  21735885.62048 113480180.95448       392.06348        46.900    21735887.23741
  88426261.48441       305.31341        26.900  
  22790587.68346 119765363.23446      -382.00046        42.900    22790589.30841
  93323682.27741      -297.81341        24.600  
  23130340.21646 120808063.76046     -3258.93846        41.600    23130342.63541
  94714894.41241     -2539.62541        16.300  
  20704814.87848 108061849.07248      -760.93848        47.600    20704816.36641
  84204185.46141      -593.12541        28.600  
  23725900.18645 123937788.52045     -3368.87545        39.100                  
                                                
 04 06 07 12 10 46.0000000  0  7G20G16G25G 6G30G14G22                           
  24726951.10243 129941001.07043      2193.93843        36.600                  
                                                
  21811203.79448 113875973.33348      2161.93848        45.700    21811206.49441
  88734675.67841      1684.43841        25.300  
  21735811.06448 113479789.14548       391.56348        47.000    21735812.14541
  88425956.17641       304.93841        25.500  
  22790660.49046 119765745.84546      -382.93846        43.000    22790661.89141
  93323980.38741      -298.56341        25.300  
  23130960.42246 120811323.05546     -3259.37546        41.600    23130962.82741
  94717434.09841     -2539.93841        17.800  
  20704959.77948 108062610.54748      -761.62548        47.600    20704961.19241
  84204778.81841      -593.62541        28.200  
  23726541.29845 123941157.53345     -3369.00045        39.100                  
                                                
 04 06 07 12 10 47.0000000  0  7G20G16G25G 6G30G14G22                           
  24726533.63843 129938807.26343      2193.62543        36.400                  
                                                
  21810792.36748 113873811.22048      2162.00048        45.700    21810795.03341
  88732990.89941      1684.50041        18.500  
  21735736.44548 113479397.06148       392.50048        46.800    21735737.50741
  88425650.64541       305.68841        25.400  
  22790733.34646 119766128.70746      -383.00046        43.100    22790734.72441
  93324278.71141      -298.62541        22.800  
  23131580.60046 120814582.18646     -3258.75046        41.600    23131582.37741
  94719973.64841     -2539.43841        10.600  
  20705104.73548 108063372.27948      -761.75048        47.700    20705106.12641
  84205372.39341      -593.75041        28.000  
  23727182.35545 123944526.29045     -3368.12545        39.000                  
                                                
 04 06 07 12 10 48.0000000  0  7G20G16G25G 6G30G14G22                           
  24726116.19543 129936613.59443      2193.25043        35.800                  
                                                
  21810380.93948 113871649.21948      2161.93848        45.700    21810383.05541
  88731306.24041      1684.43841        25.900  
  21735661.77148 113479004.69348       392.43848        46.900    21735662.26341
  88425344.91941       305.62541        21.800  
  22790806.24846 119766511.78946      -383.18846        43.000    22790808.52041
  93324577.23341      -298.75041        23.700  
  23132200.74646 120817841.13046     -3258.87546        41.700    23132202.52741
  94722513.15241     -2539.56341        10.700  
  20705249.72248 108064134.19848      -762.18848        47.700    20705251.79841
  84205966.10541      -594.06341        29.000  
  23727823.33645 123947894.74645     -3368.50045        39.200                  
                                                
 04 06 07 12 10 49.0000000  0  7G20G16G25G 6G30G14G22                           
  24725698.79543 129934420.18443      2192.81343        36.600                  
                                                
  21809969.57247 113869487.48347      2161.62547        45.400    21809971.66841
  88729621.77041      1684.18841        24.500  
  21735587.07448 113478612.16548       392.56348        47.000    21735587.54741
  88425039.07341       305.75041        26.000  
  22790879.20946 119766895.22846      -383.50046        43.200    22790881.47841
  93324876.07941      -299.00041        18.200  
  23132820.88146 120821099.95646     -3258.81346        41.400    23132822.93441
  94725052.48941     -2539.50041        26.200  
  20705394.77748 108064896.45348      -762.43848        47.700    20705396.82341
  84206560.06941      -594.25041        27.400  
  23728464.28745 123951263.03745     -3368.06345        39.000                  
                                                
 04 06 07 12 10 50.0000000  0  7G20G16G25G 6G30G14G22                           
  24725281.46744 129932226.97944      2193.25044        36.900                  
                                                
  21809558.25248 113867325.94748      2161.56348        45.600    21809560.50141
  88727937.46641      1684.18841        23.500  
  21735512.32548 113478219.39448       392.93848        46.900    21735513.67241
  88424733.02641       306.00041        25.600  
  22790952.22946 119767278.95346      -383.75046        43.200    22790954.26941
  93325175.06841      -299.18841        21.800  
  23133440.99546 120824358.65446     -3258.62546        41.500    23133443.03341
  94727591.79741     -2539.37541        27.500  
  20705539.87548 108065658.97248      -762.56348        47.700    20705541.77041
  84207154.22841      -594.37541        29.800  
  23729105.19945 123954631.07745     -3368.06345        39.500                  
                                                
 04 06 07 12 10 51.0000000  0  7G20G16G25G 6G30G14G22                           
  24724864.12744 129930033.92744      2193.18844        36.800                  
                                                
  21809146.95948 113865164.57348      2161.18848        45.700    21809149.18041
  88726253.27641      1683.87541        23.000  
  21735437.52648 113477826.36948       393.12548        46.900    21735438.85941
  88424426.77241       306.18841        28.300  
  22791025.29546 119767662.93346      -384.25046        43.100    22791027.30641
  93325474.22841      -299.56341        19.700  
  23134061.06646 120827617.17546     -3258.43846        41.400                  
                                                
  20705685.01348 108066421.72248      -762.87548        47.700    20705686.89141
  84207748.58541      -594.62541        30.200  
  23729746.06245 123957998.85245     -3367.50045        39.600                  
                                                
 04 06 07 12 10 52.0000000  0  7G20G16G25G 6G30G14G22                           
  24724446.92344 129927841.27344      2192.87544        36.900                  
                                                
  21808735.72948 113863003.51848      2160.87548        45.600    21808738.59241
  88724569.34741      1683.62541        27.700  
  21735362.70848 113477433.22948       393.18848        46.900    21735364.44841
  88424120.43941       306.18841        26.100  
  22791098.45046 119768047.32346      -384.56346        43.100    22791099.01341
  93325773.71441      -299.81341        20.700  
  23134681.14646 120830875.67646     -3258.43846        41.400                  
                                                
  20705830.22748 108067184.85648      -763.37548        47.600    20705831.99241
  84208343.24441      -595.00041        31.000  
  23730386.90845 123961366.54145     -3367.50045        39.600                  
                                                
 04 06 07 12 10 53.0000000  0  7G20G16G25G 6G30G14G22                           
  24724029.64444 129925648.16744      2194.06344        36.900    24724032.16541
 101240778.74151      1709.56341        27.900  
  21808324.41948 113860842.04648      2162.18848        45.600    21808327.25841
  88722885.09241      1684.68841        24.600  
  21735287.72948 113477039.24848       394.81348        46.900    21735289.45041
  88423813.42941       307.50041        27.700  
  22791171.53246 119768431.38246      -383.43846        43.300    22791172.08041
  93326072.99641      -298.93841        24.100  
  23135301.07346 120834133.42146     -3256.87546        41.500                  
                                                
  20705975.37448 108067947.64748      -762.18848        47.600    20705977.12441
  84208937.62641      -594.06341        31.500  
  23731027.59245 123964733.37445     -3365.93845        39.600                  
                                                
 04 06 07 12 10 54.0000000  0  7G20G16G25G 6G30G14G22                           
  24723612.20444 129923454.48344      2193.81344        36.700    24723617.62141
 101239069.33141      1709.31341        24.400  
  21807912.97748 113858679.92148      2162.12548        45.600    21807916.31141
  88721200.32941      1684.62541        14.900  
  21735212.54348 113476644.17748       395.37548        46.900    21735213.92841
  88423505.58241       307.93841        28.400  
  22791244.50846 119768814.87246      -383.68846        43.100    22791245.27741
  93326371.87441      -299.12541        26.100  
  23135920.82946 120837390.19146     -3256.68846        41.400    23135921.87241
  94737739.17151     -2537.81341        22.700  
  20706120.41848 108068709.85048      -762.18848        47.700    20706122.08641
  84209531.53041      -594.06341        28.000  
  23731668.08645 123968099.12545     -3365.68845        39.700                  
                                                
 04 06 07 12 10 55.0000000  0  7G20G16G25G 6G30G14G22                           
  24723194.85744 129921261.09844      2193.12544        37.100                  
                                                
  21807501.60047 113856518.12147      2161.43847        45.500    21807504.91341
  88719515.83041      1684.06341        24.200  
  21735137.34548 113476249.01448       395.00048        46.800    21735138.71341
  88423197.67041       307.62541        28.000  
  22791317.57346 119769198.76746      -384.18846        43.300    22791318.31141
  93326671.02941      -299.56341        14.000  
  23136540.57946 120840646.92646     -3256.81346        41.300    23136543.31841
  94740276.90241     -2537.93841        23.600  
  20706265.53448 108069472.45848      -762.93848        47.700    20706267.18441
  84210125.77641      -594.68841        29.200  
  23732308.54945 123971464.75945     -3365.62545        40.100                  
                                                
 04 06 07 12 10 56.0000000  0  7G20G16G25G 6G30G14G22                           
  24722777.72344 129919069.05244      2190.93844        36.800                  
                                                
  21807090.46447 113854357.60847      2159.56347        45.400    21807094.05941
  88717832.32041      1682.62541        26.100  
  21735062.31148 113475854.72648       393.25048        47.000    21735063.81141
  88422890.42341       306.25041        26.700  
  22791390.88346 119769584.07946      -386.68846        43.300    22791392.24641
  93326971.26241      -301.50041        24.400  
  23137160.49746 120843904.65846     -3258.62546        41.200    23137163.22541
  94742815.40941     -2539.37541        11.000  
  20706410.91548 108070236.43048      -765.18848        47.600    20706412.10541
  84210721.07741      -596.43841        28.200  
  23732949.16845 123974831.26345     -3367.25045        40.200                  
                                                
 04 06 07 12 10 57.0000000  0  7G20G16G25G 6G30G14G22                           
  24722360.82344 129916878.30244      2191.12544        36.700                  
                                                
  21806679.58147 113852198.40647      2159.50047        45.300    21806683.14741
  88716149.80141      1682.56341        29.000  
  21734987.43948 113475461.29548       393.81348        46.900    21734988.92441
  88422583.87341       306.68841        25.700  
  22791464.46246 119769970.76446      -386.50046        43.300    22791465.81141
  93327272.59241      -301.31341        25.900  
  23137780.60846 120847163.32446     -3258.37546        41.300                  
                                                
  20706556.56148 108071001.77948      -765.37548        47.600    20706557.72941
  84211317.46341      -596.56341        29.500  
  23733589.97345 123978198.65645     -3366.75045        40.600    23733587.60041
  97185073.60351     -2623.62541        24.400  
 04 06 07 12 10 58.0000000  0  7G20G16G25G 6G30G14G22                           
  24721944.04344 129914688.01944      2189.62544        36.900                  
                                                
  21806268.78647 113850039.64347      2158.18847        45.400    21806271.22041
  88714467.63541      1681.56341        25.000  
  21734912.56948 113475067.88348       393.00048        46.900    21734914.25641
  88422277.32641       306.06341        26.800  
  22791538.14346 119770357.97246      -387.81346        43.300    22791540.80441
  93327574.27841      -302.37541        21.700  
  23138400.74846 120850422.09046     -3259.43846        41.300                  
                                                
  20706702.30648 108071767.62048      -766.43848        47.700    20706703.75941
  84211914.23341      -597.37541        31.000  
  23734230.76545 123981566.03245     -3367.75045        40.800    23734228.87841
  97187697.51241     -2624.37541        18.600  
 04 06 07 12 10 59.0000000  0  7G20G16G25G 6G30G14G22                           
  24721527.38743 129912498.40443      2189.37543        36.300                  
                                                
  21805858.10547 113847881.52447      2158.25047        45.400    21805860.52541
  88712786.00041      1681.56341        24.600  
  21734837.73848 113474674.66948       393.56348        46.900    21734839.40041
  88421970.91641       306.50041        23.200  
  22791611.97046 119770745.93746      -387.87546        43.200    22791614.61341
  93327876.59441      -302.37541        24.400  
  23139020.92046 120853681.15146     -3258.56346        41.200    23139024.77141
  94750444.47451     -2539.31341        26.400  
  20706848.17748 108072534.18648      -766.50048        47.600    20706849.60441
  84212511.55941      -597.43841        29.000  
  23734871.59845 123984933.64645     -3367.25045        40.800    23734869.69041
  97190321.63241     -2624.00041        11.500  
 04 06 07 12 11  0.0000000  0  7G20G16G25G 6G30G14G22                           
  24721110.63443 129910308.49043      2190.50043        36.600                  
                                                
  21805447.37047 113845723.12047      2158.62547        45.500    21805450.26341
  88711104.12741      1681.87541        19.500  
  21734762.77848 113474280.76448       394.31348        46.900    21734763.89841
  88421663.98341       307.06341        26.700  
  22791685.76046 119771133.70146      -387.50046        43.200    22791689.40741
  93328178.76741      -302.12541        21.600  
  23139640.97046 120856939.57346     -3257.62546        41.400    23139644.79941
  94752983.47241     -2538.56341        20.700  
  20706994.00348 108073300.53748      -766.06348        47.600    20706995.59141
  84213108.72541      -597.12541        29.000  
  23735512.28045 123988300.52445     -3366.37545        40.800    23735510.92041
  97192945.25441     -2623.31341        11.500  
 04 06 07 12 11  1.0000000  0  7G20G16G25G 6G30G14G22                           
  24720693.92543 129908118.59643      2190.18843        36.500                  
                                                
  21805036.63348 113843564.70348      2158.25048        45.600    21805039.50541
  88709422.24141      1681.56341        26.300  
  21734687.73948 113473886.40448       394.43848        46.900    21734688.83841
  88421356.69541       307.18841        26.800  
  22791759.57846 119771521.54846      -387.93846        43.100    22791763.18541
  93328480.99341      -302.43841        23.900  
  23140260.97446 120860197.70446     -3258.12546        41.400    23140262.48441
  94755522.29041     -2538.93841        24.400  
  20707139.83848 108074066.95248      -766.43848        47.600    20707141.40941
  84213705.92241      -597.37541        27.600  
  23736152.87345 123991666.96745     -3366.31345        41.000    23736151.50841
  97195568.45541     -2623.25041        23.100  
 04 06 07 12 11  2.0000000  0  7G20G16G25G 6G30G14G22                           
  24720277.32843 129905929.35643      2188.56343        36.400                  
                                                
  21804626.01748 113841406.89348      2157.56348        45.700    21804628.45841
  88707740.82041      1681.06341        23.300  
  21734612.72648 113473492.22048       394.18848        46.900    21734614.16141
  88421049.53741       307.00041        26.300  
  22791833.51346 119771910.07646      -388.75046        43.100    22791835.60241
  93328783.75041      -303.06341        19.100  
  23140881.03046 120863456.03846     -3258.43846        41.400    23140882.49641
  94758061.20741     -2539.18841        22.500  
  20707285.80448 108074834.02448      -767.31348        47.600    20707287.47041
  84214303.64741      -598.06341        28.600  
  23736793.53245 123995033.61145     -3366.93845        40.400    23736791.78441
  97198191.80841     -2623.75041        11.800  
 04 06 07 12 11  3.0000000  0  7G20G16G25G 6G30G14G22                           
  24719860.85043 129903740.70743      2188.68843        36.600                  
                                                
  21804215.51348 113839249.71348      2156.81348        45.700    21804217.93741
  88706059.89141      1680.43841        28.400  
  21734537.74248 113473098.23948       393.93848        46.900    21734539.16741
  88420742.54341       306.81341        24.900  
  22791907.58946 119772299.35346      -389.75046        42.900    22791909.66541
  93329087.11741      -303.87541        24.700  
  23141501.11046 120866714.69546     -3258.93846        41.300    23141504.42441
  94760600.45141     -2539.62541        19.900  
  20707431.90848 108075601.81348      -768.12548        47.700    20707433.55241
  84214901.92341      -598.68841        28.100  
  23737434.23045 123998400.40245     -3366.93845        40.400    23737432.46141
  97200815.36241     -2623.75041        11.800  
 04 06 07 12 11  4.0000000  0  7G20G16G25G 6G30G14G22                           
  24719444.49043 129901552.70343      2187.87543        36.600                  
                                                
  21803805.10948 113837093.10948      2156.50048        45.700    21803807.89141
  88704379.42841      1680.25041        16.100  
  21734462.79948 113472704.42748       393.87548        46.900    21734464.32341
  88420435.70241       306.75041        26.500  
  22791981.81446 119772689.29646      -390.37546        43.200    22791984.35041
  93329390.96841      -304.37541        26.600  
  23142121.23646 120869973.54946     -3258.81346        41.400    23142124.53041
  94763139.76241     -2539.50041        26.300  
  20707578.14348 108076370.25148      -768.56348        47.600    20707579.93441
  84215500.71641      -599.06341        30.500  
  23738074.95145 124001767.41045     -3367.18845        39.900    23738072.65541
  97203439.02841     -2623.93841        26.900  
 04 06 07 12 11  5.0000000  0  7G20G16G25G 6G30G14G22                           
  24719028.22543 129899365.28143      2186.93843        36.400                  
                                                
  21803394.82548 113834937.08348      2155.68848        45.700    21803397.58941
  88702699.41641      1679.56341        22.500  
  21734387.88148 113472310.74648       393.68848        46.900    21734389.39041
  88420128.94541       306.62541        24.900  
  22792056.15146 119773079.87946      -390.93846        43.200    22792058.65541
  93329695.31741      -304.81341        26.100  
  23142741.41746 120873232.66746     -3259.25046        41.300    23142743.86341
  94765679.36641     -2539.81341        10.900  
  20707724.49048 108077139.33348      -769.43848        47.600    20707726.25841
  84216099.98041      -599.75041        27.900  
  23738715.68145 124005134.50945     -3367.12545        39.900    23738713.35741
  97206062.70041     -2623.87541        27.600  
 04 06 07 12 11  6.0000000  0  7G20G16G25G 6G30G14G22                           
  24718612.12944 129897178.42544      2186.43844        36.700                  
                                                
  21802984.65148 113832781.61348      2155.37548        45.600    21802987.68041
  88701019.83041      1679.37541        23.300  
  21734312.99048 113471917.20248       393.62548        46.900    21734315.06441
  88419822.29741       306.56341        28.800  
  22792130.60446 119773471.12046      -391.25046        43.100    22792133.11941
  93330000.19841      -305.06341        24.700  
  23143361.64346 120876491.99546     -3259.25046        41.300    23143364.08041
  94768219.13541     -2539.81341        25.700  
  20707870.96448 108077909.03348      -769.75048        47.700    20707872.36641
  84216699.73441      -600.00041        29.500  
  23739356.44345 124008501.76845     -3367.37545        39.500    23739357.04941
  97208686.60441     -2624.06341        21.300  
 04 06 07 12 11  7.0000000  0  7G20G16G25G 6G30G14G22                           
  24718196.07644 129894992.08244      2185.50044        36.700                  
                                                
  21802574.57048 113830626.63448      2154.56348        45.600    21802577.57841
  88699340.62341      1678.68841        24.500  
  21734238.11248 113471523.70948       393.43848        46.900    21734240.16541
  88419515.67841       306.43841        23.700  
  22792205.16246 119773862.94546      -392.06346        43.100    22792207.65041
  93330305.47241      -305.68841        27.100  
  23143981.89546 120879751.46946     -3259.75046        41.300    23143985.19441
  94770759.00541     -2540.25041        20.600  
  20708017.53848 108078679.28248      -770.43848        47.600    20708018.91641
  84217299.93741      -600.50041        28.300  
  23739997.22545 124011869.07245     -3367.31345        39.700    23739997.78741
  97211310.39741     -2624.06341        12.500  
 04 06 07 12 11  8.0000000  0  7G20G16G25G 6G30G14G22                           
  24717780.13344 129892806.24344      2185.43844        36.900                  
                                                
  21802164.57348 113828472.14348      2154.43848        45.800    21802167.12041
  88697661.80141      1678.62541        22.900  
  21734163.25448 113471130.30048       393.43848        46.900    21734165.42041
  88419209.13441       306.43841        23.000  
  22792279.82846 119774255.39646      -392.68846        43.300    22792282.45141
  93330611.29441      -306.12541        24.500  
  23144602.18545 120883011.09945     -3259.62545        41.000    23144605.44841
  94773298.93341     -2540.12541        11.200  
  20708164.21248 108079450.12748      -770.93848        47.700    20708165.56041
  84217900.59641      -600.87541        29.400  
  23740637.99845 124015236.45545     -3367.50045        39.600    23740638.04441
  97213934.31841     -2624.18841        12.300  
 04 06 07 12 11  9.0000000  0  7G20G16G25G 6G30G14G22                           
  24717364.25144 129890620.79244      2185.00044        36.700                  
                                                
  21801754.65648 113826318.01648      2154.18848        45.700    21801757.18341
  88695983.27841      1678.43841        25.600  
  21734088.37448 113470736.80748       393.68848        46.900    21734090.52041
  88418902.52441       306.62541        26.600  
  22792354.58746 119774648.26346      -393.06346        43.300    22792357.19441
  93330917.44741      -306.43841        20.700  
  23145222.49346 120886270.76446     -3259.37546        41.300    23145224.74041
  94775838.90141     -2539.93841        28.000  
  20708310.98348 108080221.39348      -771.37548        47.700    20708312.30641
  84218501.58041      -601.25041        30.900  
  23741278.78945 124018603.75545     -3367.25045        39.800    23741278.80541
  97216558.22041     -2624.00041        12.800  
 04 06 07 12 11 10.0000000  0  7G20G16G25G 6G30G14G22                           
  24716948.42944 129888435.56744      2185.00044        37.000                  
                                                
  21801344.77948 113824164.11848      2153.75048        45.700    21801347.46741
  88694304.91541      1678.06341        23.700  
  21734013.45148 113470343.11648       393.81348        47.000    21734015.67841
  88418595.73441       306.68841        24.100  
  22792429.40847 119775041.45847      -393.43847        43.400    22792432.95741
  93331223.80341      -306.75041         8.900  
  23145842.76746 120889530.30146     -3259.43846        41.200    23145844.98341
  94778378.78041     -2540.00041        19.000  
  20708457.80348 108080992.93648      -771.62548        47.600    20708459.29141
  84219102.78641      -601.43841        26.700  
  23741919.52145 124021970.83945     -3367.00045        39.600    23741922.47041
  97219182.00841     -2623.81341        25.000  
 04 06 07 12 11 11.0000000  0  7G20G16G25G 6G30G14G22                           
  24716532.69243 129886250.89643      2184.75043        36.100                  
                                                
  21800935.00647 113822010.75847      2153.12547        45.500    21800937.66941
  88692626.95441      1677.62541        22.800  
  21733938.55648 113469949.55448       393.31348        47.000    21733940.75941
  88418289.04941       306.31341        26.500  
  22792504.33846 119775435.29346      -394.12546        43.200    22792507.88241
  93331530.70341      -307.25041        27.700  
  23146463.08746 120892790.06546     -3259.75046        41.200    23146462.92341
  94780918.86041     -2540.25041        10.900  
  20708604.74048 108081765.11348      -772.43848        47.700    20708606.20841
  84219704.48241      -602.06341        28.800  
  23742560.27245 124025338.04145     -3367.06345        39.900    23742563.19141
  97221805.75341     -2623.87541        29.700  
 04 06 07 12 11 12.0000000  0  7G20G16G25G 6G30G14G22                           
  24716117.08844 129884066.92744      2184.12544        37.000                  
                                                
  21800525.36448 113819858.06348      2152.37548        45.600    21800527.90841
  88690949.53741      1677.00041        20.700  
  21733863.70248 113469556.19948       393.43848        47.000    21733865.46041
  88417982.53141       306.43841        27.700  
  22792579.41446 119775829.85846      -394.93846        43.200    22792583.15441
  93331838.18441      -307.93841        25.100  
  23147083.46245 120896050.13745     -3260.12545        41.000    23147083.26641
  94783459.15841     -2540.50041        14.500  
  20708751.81048 108082538.00148      -773.25048        47.600    20708753.14141
  84220306.74341      -602.68841        26.600  
  23743201.07945 124028705.47245     -3367.62545        40.000    23743201.88741
  97224429.64941     -2624.31341        28.500  
 04 06 07 12 11 13.0000000  0  7G20G16G25G 6G30G14G22                           
  24715701.60144 129881883.43744      2183.31344        37.000                  
                                                
  21800115.80347 113817705.81847      2152.18847        45.400    21800118.32741
  88689272.46141      1676.87541        20.500  
  21733788.85948 113469162.89048       393.37548        47.000    21733790.59441
  88417676.06241       306.37541        25.200  
  22792654.60746 119776224.96746      -395.18846        43.100    22792658.30741
  93332146.01541      -308.12541        15.600  
  23147703.86845 120899310.31145     -3259.87545        40.900    23147703.90941
  94785999.54841     -2540.31341        11.100  
  20708898.97948 108083311.41448      -773.50048        47.600    20708900.29541
  84220909.40241      -602.87541        29.400  
  23743841.87545 124032072.92545     -3367.37545        40.300                  
                                                
 04 06 07 12 11 14.0000000  0  7G20G16G25G 6G30G14G22                           
  24715286.17944 129879700.38444      2183.06344        37.200                  
                                                
  21799706.31847 113815553.98147      2151.68847        45.500    21799708.93941
  88687595.68441      1676.50041        26.500  
  21733714.01748 113468769.56048       393.31348        47.000    21733716.15541
  88417369.58041       306.31341        26.600  
  22792729.88946 119776620.59046      -395.87546        43.300    22792731.74641
  93332454.34241      -308.62541        24.200  
  23148324.28346 120902570.57846     -3260.37546        41.200    23148324.30941
  94788540.08141     -2540.68841        11.000  
  20709046.24548 108084085.31948      -774.06348        47.600    20709047.16741
  84221512.44241      -603.31341        27.800  
  23744482.67345 124035440.37445     -3367.56345        40.300                  
                                                
 04 06 07 12 11 15.0000000  0  7G20G16G25G 6G30G14G22                           
  24714870.96744 129877518.43244      2180.75044        37.000                  
                                                
  21799297.05048 113813403.26848      2149.62548        45.600    21799299.65241
  88685919.82941      1674.87541        26.800  
  21733639.30048 113468376.92348       391.56348        47.000    21733641.41541
  88417063.62841       304.93841        27.400  
  22792805.39346 119777017.40046      -397.93846        43.200    22792807.23541
  93332763.55541      -310.25041         9.300  
  23148944.85245 120905831.61145     -3261.93845        41.000    23148946.03141
  94791081.18641     -2541.93841        21.800  
  20709193.73948 108084860.41348      -776.43848        47.600    20709194.64341
  84222116.41941      -605.18841        27.900  
  23745123.59445 124038808.49445     -3369.18845        40.200                  
                                                
 04 06 07 12 11 16.0000000  0  7G20G16G25G 6G30G14G22                           
  24714456.07244 129875338.06244      2180.87544        37.300                  
                                                
  21798888.07747 113811254.12347      2148.93847        45.400    21798890.87741
  88684245.18941      1674.31341        21.400  
  21733564.80348 113467985.41048       391.50048        47.100    21733566.66241
  88416758.56041       304.87541        27.300  
  22792881.21346 119777415.88146      -398.50046        43.100    22792883.85741
  93333074.02141      -310.68841        24.700  
  23149565.64145 120909093.86545     -3262.25045        40.900    23149566.79441
  94793623.18241     -2542.18841        15.700  
  20709341.54648 108085637.13148      -776.93848        47.500    20709342.41641
  84222721.64441      -605.56341        31.000  
  23745764.75445 124042177.72745     -3369.00045        40.300                  
                                                
 04 06 07 12 11 17.0000000  0  7G20G16G25G 6G30G14G22                           
  24714041.19144 129873158.02344      2179.81344        36.900                  
                                                
  21798479.15047 113809105.23747      2148.75047        45.400    21798481.93641
  88682570.73441      1674.18841        24.600  
  21733490.27448 113467593.74148       391.81348        47.000    21733492.11041
  88416453.37141       305.12541        25.900  
  22792957.10746 119777814.73546      -399.06346        43.100    22792959.73541
  93333384.81441      -311.12541        30.200  
  23150186.40845 120912356.03345     -3262.18845        41.100    23150188.67841
  94796165.20641     -2542.12541        27.000  
  20709489.41648 108086414.18548      -777.31348        47.600    20709490.26841
  84223327.14841      -605.87541        27.800  
  23746405.86245 124045546.80845     -3369.00045        40.100                  
                                                
 04 06 07 12 11 18.0000000  0  7G20G16G25G 6G30G14G22                           
  24713626.38844 129870978.19144      2179.25044        36.900                  
                                                
  21798070.27447 113806956.58047      2148.43847        45.500    21798072.86441
  88680896.45741      1673.93841        25.100  
  21733415.70148 113467201.87448       391.93848        47.000    21733417.42941
  88416148.02641       305.25041        24.000  
  22793033.06446 119778213.86946      -399.31346        43.200    22793035.90841
  93333695.85541      -311.31341        26.900  
  23150807.16345 120915618.08245     -3261.93845        40.900    23150809.39141
  94798707.00741     -2541.93841        11.300  
  20709637.33948 108087191.53248      -777.50048        47.600    20709638.63041
  84223932.87141      -606.00041        27.300  
  23747046.94545 124048915.68845     -3368.87545        39.900                  
                                                
 04 06 07 12 11 19.0000000  0  7G20G16G25G 6G30G14G22                           
  24713211.52044 129868797.95544      2180.81344        36.800                  
                                                
  21797661.30848 113804807.46548      2150.12548        45.600    21797663.88141
  88679221.81941      1675.25041        22.700  
  21733340.95548 113466809.12048       393.87548        47.000    21733342.67141
  88415841.99341       306.75041        26.800  
  22793108.94246 119778612.66746      -397.81346        43.100    22793111.76641
  93334006.57041      -310.12541        23.300  
  23151427.75645 120918879.35645     -3260.12545        40.900    23151430.35041
  94801248.23941     -2540.50041        21.900  
  20709785.18648 108087968.50148      -776.12548        47.600    20709786.46041
  84224538.30841      -604.93841        27.900  
  23747687.85345 124052283.68445     -3366.87545        40.300    23747689.51641
  97242830.61051     -2623.62541        25.500  
 04 06 07 12 11 20.0000000  0  7G20G16G25G 6G30G14G22                           
  24712796.35744 129866616.18144      2182.62544        36.900                  
                                                
  21797252.06748 113802656.87348      2151.06348        45.700    21797255.66841
  88677546.03241      1676.00041        27.200  
  21733265.84448 113466414.44948       395.50048        47.000    21733267.68741
  88415534.46341       308.00041        26.500  
  22793184.56846 119779010.07246      -397.12546        43.000    22793186.75941
  93334316.25841      -309.62541        20.700  
  23152048.01245 120922138.78045     -3258.75045        41.100    23152050.57041
  94803788.03641     -2539.43841        27.500  
  20709932.76748 108088744.03948      -775.00048        47.600    20709934.07141
  84225142.63041      -604.06341        30.700  
  23748328.39645 124055649.74745     -3365.31345        40.200                  
                                                
 04 06 07 12 11 21.0000000  0  7G20G16G25G 6G30G14G22                           
  24712381.29144 129864434.95844      2179.75044        37.900                  
                                                
  21796842.91948 113800506.76548      2148.62548        45.700    21796846.49841
  88675870.64141      1674.06341        23.000  
  21733190.75948 113466019.84748       393.25048        46.900    21733192.57841
  88415226.99241       306.25041        25.600  
  22793260.28046 119779408.03146      -399.50046        43.000    22793262.46941
  93334626.36041      -311.43841         9.100  
  23152668.29545 120925398.35645     -3260.87545        40.800    23152670.56141
  94806327.95441     -2541.12541        11.400  
  20710080.45048 108089520.14948      -777.75048        47.600    20710081.73041
  84225747.37441      -606.18841        30.100  
  23748968.93745 124059015.88745     -3367.37545        40.400                  
                                                
 04 06 07 12 11 22.0000000  0  7G20G16G25G 6G30G14G22                           
  24711966.63744 129862255.91644      2178.81344        37.000                  
                                                
  21796434.18048 113798358.82048      2147.43848        45.700    21796437.36941
  88674196.91941      1673.18841        27.100  
  21733115.99648 113465626.97048       392.56348        47.000    21733118.56141
  88414920.86241       305.75041        26.200  
  22793336.42346 119779808.25446      -400.81346        43.100    22793338.95141
  93334938.24741      -312.50041        22.900  
  23153288.91845 120928659.76645     -3261.68845        40.800    23153291.18041
  94808869.38741     -2541.75041        17.100  
  20710228.56548 108090298.48748      -778.93848        47.600    20710229.35341
  84226353.87741      -607.12541        25.700  
  23749609.82245 124062383.73645     -3368.18845        40.300                  
                                                
 04 06 07 12 11 23.0000000  0  7G20G16G25G 6G30G14G22                           
  24711552.24744 129860078.25244      2176.75044        37.400                  
                                                
  21796025.71448 113796212.23348      2145.62548        45.700    21796028.85941
  88672524.22641      1671.75041        25.600  
  21733041.41148 113465235.02848       391.31348        47.000    21733043.95141
  88414615.43341       304.75041        22.400  
  22793412.84946 119780209.92046      -402.56346        43.100    22793415.36941
  93335251.23741      -313.87541        20.600  
  23153909.74445 120931922.19345     -3263.18845        41.100    23153913.46741
  94811411.53241     -2542.93841        25.100  
  20710376.94448 108091078.23848      -780.62548        47.600    20710377.71441
  84226961.47641      -608.43841        28.700  
  23750250.90045 124065752.51745     -3369.18845        40.200                  
                                                
 04 06 07 12 11 24.0000000  0  7G20G16G25G 6G30G14G22                           
  24711137.90244 129857900.76044      2178.87544        37.400                  
                                                
  21795617.26148 113794065.79648      2147.62548        45.700    21795619.05841
  88670851.67641      1673.31341        20.000  
  21732966.76548 113464842.81548       393.56348        46.900    21732969.17241
  88414309.81941       306.50041        25.200  
  22793489.33246 119780611.83046      -400.56346        43.000    22793492.47941
  93335564.39541      -312.31341        23.700  
  23154530.52245 120935184.41745     -3260.68845        41.000    23154534.21341
  94813953.46841     -2540.93841        18.500  
  20710525.37448 108091858.22548      -778.81348        47.600    20710526.37341
  84227569.25641      -607.06341        29.700  
  23750891.92945 124069121.03445     -3367.00045        40.100    23750887.85441
  97255922.33551     -2623.81341        17.100  
 04 06 07 12 11 25.0000000  0  7G20G16G25G 6G30G14G22                           
  24710723.17344 129855721.44744      2180.43844        37.300                  
                                                
  21795208.45548 113791917.55848      2149.06348        45.700    21795210.24241
  88669177.73941      1674.43841        22.800  
  21732891.70048 113464448.37048       395.37548        47.000    21732894.09441
  88414002.46741       307.93841        28.700  
  22793565.48946 119781012.03546      -399.31346        43.000    22793568.61541
  93335876.24841      -311.31341        23.700  
  23155150.88945 120938444.49845     -3259.12545        40.900    23155154.23341
  94816493.78441     -2539.75041        13.800  
  20710673.47948 108092636.47248      -777.50048        47.700    20710674.44941
  84228175.68841      -606.00041        27.000  
  23751532.51345 124072487.29545     -3365.12545        40.200    23751528.40741
  97258545.37741     -2622.31341        25.400  
 04 06 07 12 11 26.0000000  0  7G20G16G25G 6G30G14G22                           
  24710308.36844 129853541.58644      2179.37544        37.400                  
                                                
  21794799.54248 113789768.70448      2148.62548        45.800    21794801.94541
  88667503.32741      1674.06341        28.100  
  21732816.43848 113464052.86348       395.37548        47.100    21732818.94541
  88413694.28841       307.93841        27.300  
  22793641.53346 119781411.71346      -400.00046        43.100    22793644.51241
  93336187.68541      -311.87541        23.300  
  23155771.10245 120941703.63445     -3259.31345        40.800    23155774.40041
  94819033.35441     -2539.87541        21.700  
  20710821.48148 108093414.17648      -778.12548        47.600    20710822.89041
  84228781.70941      -606.50041        31.700  
  23752172.88845 124075852.53045     -3365.56345        40.000    23752171.05841
  97261167.69341     -2622.68841        12.000  
 04 06 07 12 11 27.0000000  0  7G20G16G25G 6G30G14G22                           
  24709893.66944 129851362.39644      2178.93844        37.900                  
                                                
  21794390.77048 113787620.56448      2147.56348        45.800    21794393.14041
  88665829.42641      1673.25041        19.300  
  21732741.23248 113463657.64548       394.93848        47.000    21732743.71441
  88413386.31841       307.56341        25.700  
  22793717.74446 119781812.20546      -401.06346        43.200    22793720.69841
  93336499.73941      -312.68841        28.400  
  23156391.34345 120944963.11545     -3259.81345        40.800    23156394.51741
  94821573.16841     -2540.25041        24.300  
  20710969.62048 108094192.64848      -779.00048        47.600    20710971.00141
  84229388.29241      -607.18841        27.000  
  23752813.30145 124079217.99145     -3365.81345        39.800    23752811.45341
  97263790.10041     -2622.87541        22.800  
 04 06 07 12 11 28.0000000  0  7G20G16G25G 6G30G14G22                           
  24709479.17744 129849184.24044      2177.87544        37.700                  
                                                
  21793982.18448 113785473.38048      2146.75048        45.900    21793984.48341
  88664156.30941      1672.62541        24.200  
  21732666.12148 113463262.96348       394.62548        47.100    21732668.73441
  88413078.77141       307.31341        27.400  
  22793794.14746 119782213.71746      -402.12546        43.100    22793797.29541
  93336812.60541      -313.50041        18.200  
  23157011.71045 120948223.21745     -3260.25045        41.000                  
                                                
  20711117.96348 108094972.16648      -780.00048        47.600    20711118.93241
  84229995.69641      -607.93841        30.300  
  23753453.84345 124082584.02045     -3366.25045        39.700    23753451.43441
  97266413.07541     -2623.18841        12.700  
 04 06 07 12 11 29.0000000  0  7G20G16G25G 6G30G14G22                           
  24709064.90344 129847006.94544      2177.00044        37.600                  
                                                
  21793573.74948 113783327.05748      2145.87548        45.800    21793576.02841
  88662483.86041      1671.93841        25.500  
  21732591.10148 113462868.71948       394.06348        47.100    21732593.68741
  88412771.56641       306.87541        24.300  
  22793870.74746 119782616.19446      -402.93846        42.900    22793873.86541
  93337126.22141      -314.12541         9.300  
  23157632.18445 120951483.84545     -3261.00045        40.900                  
                                                
  20711266.47148 108095752.60548      -780.93848        47.600    20711267.42541
  84230603.83741      -608.68841        30.300  
  23754094.47145 124085950.47145     -3366.43845        40.000    23754092.02741
  97269036.28541     -2623.37541        25.700  
 04 06 07 12 11 30.0000000  0  7G20G16G25G 6G30G14G22                           
  24708650.57744 129844829.55744      2178.06344        37.700    24708655.32941
 101177808.05751      1697.00041        24.700  
  21793165.29448 113781180.64548      2146.81348        45.700    21793167.58541
  88660811.32941      1672.68841        28.100  
  21732515.98248 113462473.95248       395.31348        47.100    21732518.21541
  88412463.96241       307.87541        29.200  
  22793947.32946 119783018.66846      -402.25046        43.000    22793947.97741
  93337439.80241      -313.62541        22.700  
  23158252.57245 120954744.01045     -3259.50045        41.100                  
                                                
  20711414.98548 108096533.02248      -780.00048        47.600    20711415.80441
  84231211.95141      -607.93841        29.500  
  23754734.98745 124089316.37345     -3364.93845        39.800    23754732.05341
  97271659.03641     -2622.18841        24.700  
 04 06 07 12 11 31.0000000  0  7G20G16G25G 6G30G14G22                           
  24708236.16644 129842651.82844      2177.93844        38.000    24708240.90041
 101176111.13341      1696.93841        14.400  
  21792756.78348 113779033.87348      2146.50048        45.800    21792759.04541
  88659138.52041      1672.43841        26.200  
  21732440.70748 113462078.39548       395.37548        47.000    21732442.92241
  88412155.74541       307.93841        27.900  
  22794023.87746 119783420.88446      -402.62546        42.900    22794024.49741
  93337753.22341      -313.87541        24.100  
  23158872.85545 120958003.49745     -3259.43845        40.900                  
                                                
  20711563.44148 108097313.15848      -780.50048        47.600    20711564.23741
  84231819.85441      -608.37541        29.600  
  23755375.34045 124092681.53045     -3365.50045        40.300    23755372.40041
  97274281.24141     -2622.62541        22.100  
 04 06 07 12 11 32.0000000  0  7G20G16G25G 6G30G14G22                           
  24707822.06144 129840475.59444      2175.25044        38.100    24707826.97841
 101174415.29641      1694.81341        26.300  
  21792348.53848 113776888.53248      2144.25048        45.900    21792350.41841
  88657466.82441      1670.68841        25.700  
  21732365.63248 113461683.84748       393.56348        47.000    21732367.66441
  88411848.31241       306.50041        27.700  
  22794100.70546 119783824.62346      -405.00046        43.100    22794101.99041
  93338067.86041      -315.75041        22.100  
  23159493.31945 120961264.09245     -3261.56345        40.700    23159499.34841
  94834278.34851     -2541.62541        21.900  
  20711712.18048 108098094.79648      -783.06348        47.600    20711713.34141
  84232428.93941      -610.31341        28.900  
  23756015.88845 124096047.66245     -3367.00045        40.300    23756013.48541
  97276904.19041     -2623.81341        23.200  
 04 06 07 12 11 33.0000000  0  7G20G16G25G 6G30G14G22                           
  24707408.25344 129838301.04244      2174.43844        38.000    24707413.16741
 101172720.89841      1694.18841        23.800  
  21791940.62148 113774744.88148      2143.25048        45.800    21791942.47541
  88655796.44641      1669.87541        25.900  
  21732290.79248 113461290.54348       393.25048        47.000    21732292.79941
  88411541.83941       306.25041        27.600  
  22794177.87746 119784230.12746      -406.06346        42.800    22794179.14741
  93338383.90141      -316.56341        20.700  
  23160114.04845 120964526.01145     -3262.00045        40.700    23160121.21041
  94836820.04341     -2542.00041        11.500  
  20711861.25248 108098878.17748      -783.87548        47.600    20711862.39341
  84233039.36641      -611.00041        29.900  
  23756656.67445 124099415.01545     -3367.31345        40.200    23756654.25041
  97279528.11741     -2624.06341        12.000  
 04 06 07 12 11 34.0000000  0  7G20G16G25G 6G30G14G22                           
  24706994.57044 129836127.32244      2173.18844        38.100                  
                                                
  21791532.84948 113772602.04748      2142.43848        45.900    21791535.44241
  88654126.71341      1669.25041        22.500  
  21732216.02148 113460897.64248       392.87548        47.000    21732217.39041
  88411235.68341       306.00041        24.400  
  22794255.21346 119784636.54446      -406.87546        43.000    22794257.00041
  93338700.57241      -317.18841        13.300  
  23160734.85745 120967788.38645     -3262.37545        41.000    23160741.98041
  94839362.07941     -2542.25041        21.200  
  20712010.49648 108099662.45148      -784.62548        47.600    20712011.52441
  84233650.50441      -611.56341        27.800  
  23757297.53345 124102782.76745     -3367.50045        40.400    23757294.48141
  97282152.31141     -2624.18841        14.000  
 04 06 07 12 11 35.0000000  0  7G20G16G25G 6G30G14G22                           
  24706581.06744 129833954.30644      2172.87544        38.000                  
                                                
  21791125.22548 113770459.92348      2141.87548        46.000    21791127.78741
  88652457.53341      1668.81341        22.600  
  21732141.30948 113460505.02048       392.56348        47.000    21732142.65241
  88410929.73341       305.75041        20.500  
  22794332.69446 119785043.74846      -407.56346        42.900    22794334.47141
  93339017.90041      -317.75041        20.300  
  23161355.74345 120971051.15545     -3262.81345        40.900    23161359.90441
  94841904.46941     -2542.62541        17.700  
  20712159.89448 108100447.50948      -785.37548        47.600    20712160.89841
  84234262.24841      -612.12541        29.100  
  23757938.46745 124106150.81645     -3368.25045        40.300    23757935.38341
  97284776.78041     -2624.75041        19.900  
 04 06 07 12 11 36.0000000  0  7G20G16G25G 6G30G14G22                           
  24706167.68444 129831781.86944      2172.37544        38.100                  
                                                
  21790717.68848 113768318.30148      2141.50048        45.900    21790720.72341
  88650788.76041      1668.56341        25.100  
  21732066.61648 113460112.48448       392.50048        47.000    21732068.00541
  88410623.88941       305.68841        26.500  
  22794410.30546 119785451.57846      -408.18846        43.000    22794411.45041
  93339335.68141      -318.25041        25.400  
  23161976.64745 120974314.09445     -3262.68845        41.000    23161980.79941
  94844447.02341     -2542.50041        21.600  
  20712309.40248 108101233.16548      -785.93848        47.600    20712310.93141
  84234874.43841      -612.56341        28.400  
  23758579.40745 124109518.92345     -3367.93845        40.700    23758576.03541
  97287401.25141     -2624.50041        11.600  
 04 06 07 12 11 37.0000000  0  7G20G16G25G 6G30G14G22                           
  24705754.38144 129829609.83144      2171.87544        37.900                  
                                                
  21790310.24448 113766177.11948      2140.93848        46.000    21790313.24641
  88649120.30741      1668.12541        23.800  
  21731991.91248 113459719.92248       392.62548        46.900    21731993.27941
  88410318.00341       305.75041        22.600  
  22794487.99546 119785859.89246      -408.56346        42.900    22794489.12741
  93339653.84741      -318.50041        26.000  
  23162597.59145 120977577.10745     -3263.06345        40.900    23162599.93141
  94846989.66241     -2542.81341        26.600  
  20712458.99148 108102019.28148      -786.31348        47.600    20712460.50441
  84235486.98541      -612.87541        28.700  
  23759220.33645 124112887.00745     -3368.12545        40.500    23759216.93941
  97290025.74041     -2624.68841        23.800  
 04 06 07 12 11 38.0000000  0  7G20G16G25G 6G30G14G22                           
  24705341.10844 129827438.13444      2171.37544        38.200    24705348.68841
 101164285.08951      1691.81341        14.000  
  21789902.85648 113764036.25948      2140.62548        45.900    21789905.33641
  88647452.08441      1667.87541        25.700  
  21731917.18648 113459327.27448       392.56348        47.100    21731918.61141
  88410012.02541       305.75041        26.600  
  22794565.76246 119786268.64846      -409.18846        42.900    22794568.78541
  93339972.36241      -319.00041        26.200  
  23163218.51445 120980840.11645     -3263.06345        40.800    23163220.85241
  94849532.31141     -2542.81341        11.300  
  20712608.65848 108102805.81448      -786.81348        47.500    20712610.29141
  84236099.87541      -613.25041        28.800  
  23759861.24645 124116255.01045     -3367.93845        40.300    23759859.49141
  97292650.18741     -2624.50041        22.100  
 04 06 07 12 11 39.0000000  0  7G20G16G25G 6G30G14G22                           
  24704927.95644 129825266.90744      2171.68844        38.700    24704935.50341
 101162593.26041      1692.06341        13.600  
  21789495.55648 113761895.82448      2140.18848        45.900    21789498.00441
  88645784.21141      1667.50041        24.100  
  21731842.46148 113458934.60448       392.87548        47.000    21731843.86741
  88409706.04841       306.00041        26.300  
  22794643.64346 119786677.89346      -409.37546        42.800    22794646.64441
  93340291.26241      -319.18841        26.500  
  23163839.44045 120984103.19645     -3262.93845        41.000    23163842.08341
  94852074.96741     -2542.68841        26.000  
  20712758.42148 108103592.82948      -787.12548        47.600    20712760.03141
  84236713.12241      -613.50041        25.100  
  23760502.15145 124119622.98345     -3367.75045        40.200    23760500.38441
  97295274.63041     -2624.37541        11.800  
 04 06 07 12 11 40.0000000  0  7G20G16G25G 6G30G14G22                           
  24704514.83644 129823095.88944      2171.12544        38.600    24704519.70241
 101160901.68441      1691.62541        13.600  
  21789088.28748 113759755.58748      2140.00048        46.000    21789091.06141
  88644116.50041      1667.37541        27.600  
  21731767.68948 113458541.73248       392.87548        47.100    21731769.59941
  88409399.94041       306.00041        26.400  
  22794721.58246 119787087.46446      -409.81346        43.100    22794724.65041
  93340610.41041      -319.50041        26.600  
  23164460.34045 120987366.15645     -3263.06345        41.000    23164462.98541
  94854617.56041     -2542.81341        24.200  
  20712908.24048 108104380.13448      -787.43848        47.700    20712909.79541
  84237326.61241      -613.75041        28.900  
  23761143.02345 124122990.73945     -3367.62545        40.600    23761139.91341
  97297898.85541     -2624.31341        22.100  
 04 06 07 12 11 41.0000000  0  7G20G16G25G 6G30G14G22                           
  24704101.77244 129820925.22044      2170.31344        38.200    24704106.62341
 101159210.28641      1691.00041        24.700  
  21788681.06648 113757615.66348      2139.56348        45.900    21788683.82241
  88642449.01441      1667.00041        15.800  
  21731692.90748 113458148.73148       392.93848        47.100    21731694.79041
  88409093.69841       306.00041        24.000  
  22794799.58746 119787497.41246      -410.31346        42.900    22794802.63941
  93340929.85741      -319.87541         9.300  
  23165081.26445 120990629.06845     -3263.18845        40.900    23165086.82241
  94857160.15341     -2542.93841        17.800  
  20713058.13348 108105167.81848      -787.93848        47.600    20713059.66041
  84237940.38841      -614.12541        29.600  
  23761783.83845 124126358.37445     -3367.93845        40.400    23761780.74841
  97300523.05841     -2624.50041        20.100  
 04 06 07 12 11 42.0000000  0  7G20G16G25G 6G30G14G22                           
  24703688.77944 129818754.94644      2170.37544        38.100                  
                                                
  21788273.94248 113755476.13548      2139.25048        45.900    21788276.34241
  88640781.86641      1666.81341        21.300  
  21731618.11548 113457755.70448       393.06348        47.000    21731619.92541
  88408787.45341       306.12541        22.000  
  22794877.69446 119787907.87246      -410.75046        42.800    22794880.63341
  93341249.66941      -320.25041        22.900  
  23165702.18445 120993892.01845     -3263.00045        40.700    23165707.72241
  94859702.72941     -2542.75041        28.800  
  20713208.12048 108105955.96448      -788.25048        47.700    20713209.24441
  84238554.52541      -614.37541        29.000  
  23762424.65845 124129725.95445     -3367.62545        40.200    23762422.72741
  97303147.18341     -2624.31341        24.600  
 04 06 07 12 11 43.0000000  0  7G20G16G25G 6G30G14G22                           
  24703275.90244 129816585.33544      2169.31344        38.400                  
                                                
  21787866.92948 113753337.19748      2138.75048        45.800    21787869.29141
  88639115.15541      1666.37541        25.500  
  21731543.35348 113457362.83548       392.87548        47.100    21731545.14741
  88408481.32941       306.00041        27.300  
  22794955.92346 119788318.99546      -411.56346        43.100    22794958.85241
  93341570.05141      -320.87541        25.200  
  23166323.14045 120997155.22345     -3263.18845        41.100    23166327.45441
  94862245.50641     -2542.93841        11.100  
  20713358.23448 108106744.77248      -789.06348        47.600    20713359.33241
  84239169.19041      -615.00041        26.700  
  23763065.50545 124133093.70045     -3367.43845        40.200    23763063.56641
  97305771.40841     -2624.12541        25.800  
 04 06 07 12 11 44.0000000  0  7G20G16G25G 6G30G14G22                           
  24702863.15044 129814416.24944      2168.68844        38.100                  
                                                
  21787460.01448 113751198.80548      2138.12548        45.900    21787461.43641
  88637448.87541      1665.93841        25.900  
  21731468.60848 113456970.08348       392.75048        47.100    21731470.92241
  88408175.31441       305.87541        23.500  
  22795034.27746 119788730.75746      -412.06346        43.100    22795036.22441
  93341890.86741      -321.25041        23.900  
  23166944.15945 121000418.63045     -3263.43845        40.900    23166948.40641
  94864788.29641     -2543.12541        24.200  
  20713508.46148 108107534.19348      -789.68848        47.600    20713509.56041
  84239784.33141      -615.50041        28.900  
  23763706.37945 124136461.54945     -3367.93845        39.800    23763705.57841
  97308395.70741     -2624.50041        14.200  
 04 06 07 12 11 45.0000000  0  7G20G16G25G 6G30G14G22                           
  24702450.46744 129812247.60644      2168.68844        38.600                  
                                                
  21787053.18148 113749060.86448      2137.68848        45.900    21787054.57241
  88635782.92841      1665.56341        24.400  
  21731393.86148 113456577.33448       392.87548        47.000    21731396.15741
  88407869.27041       306.00041        26.600  
  22795112.73846 119789143.05546      -412.68846        42.900    22795114.66041
  93342212.14841      -321.75041        21.900  
  23167565.16845 121003682.12245     -3263.37545        40.900    23167567.98041
  94867331.23241     -2543.06341        21.400  
  20713658.78348 108108324.12448      -790.18848        47.600    20713659.85441
  84240399.84941      -615.87541        28.000  
  23764347.27045 124139829.41345     -3367.87545        39.900    23764346.41841
  97311019.93041     -2624.50041        23.500  
